sno,sna,sarea,total,ar,latitude,longitude,snaen,sareaen,aren
500101001,YouBike2.0_捷運科技大樓站,大安區,28,復興南路二段235號前,25.02605,121.5436,YouBike2.0_MRT Technology Bldg. Sta.,Daan Dist.,No.235， Sec. 2， Fuxing S. Rd.
500101002,YouBike2.0_復興南路二段273號前,大安區,21,復興南路二段273號西側,25.02565,121.54357,YouBike2.0_No.273， Sec. 2， Fuxing S. Rd.,Daan Dist.,No.273， Sec. 2， Fuxing S. Rd. (West)
500101003,YouBike2.0_國北教大實小東側門,大安區,16,和平東路二段96巷7號,25.02429,121.54124,YouBike2.0_NTUE Experiment Elementary School (East),Daan Dist.,No. 7， Ln. 96， Sec. 2， Heping E. Rd
500101004,YouBike2.0_和平公園東側,大安區,11,和平東路二段118巷33號,25.02351,121.54282,YouBike2.0_Heping Park (East),Daan Dist.,No. 33， Ln. 118， Sec. 2， Heping E. Rd
500101005,YouBike2.0_辛亥復興路口西北側,大安區,16,復興南路二段368號,25.02153,121.54299,YouBike2.0_Xinhai Fuxing Rd. Intersection (Northwest),Daan Dist.,No. 368， Sec. 2， Fuxing S. Rd.
500101006,YouBike2.0_復興南路二段280號前,大安區,27,復興南路二段280號,25.02429,121.54328,YouBike2.0_No. 280， Sec. 2， Fuxing S. Rd.,Daan Dist.,No. 280， Sec. 2， Fuxing S. Rd.
500101007,YouBike2.0_復興南路二段340巷口,大安區,11,復興南路二段342號,25.02253,121.54326,YouBike2.0_Ln. 340， Sec. 2， Fuxing S. Rd.,Daan Dist.,No. 342， Sec. 2， Fuxing S. Rd.
500101008,YouBike2.0_新生南路三段52號前,大安區,17,新生南路三段52號,25.02112,121.53407,YouBike2.0_No. 52， Sec. 3， Xinsheng S. Rd.,Daan Dist.,No. 52， Sec. 3， Xinsheng S. Rd.
500101009,YouBike2.0_新生南路三段66號前,大安區,16,新生南路三段66號東側,25.01976,121.53384,YouBike2.0_No. 66， Sec. 3， Xinsheng S. Rd.,Daan Dist.,No. 66， Sec. 3， Xinsheng S. Rd. (East)
500101010,YouBike2.0_新生南路三段82號前,大安區,20,新生南路三段82號,25.01894,121.53361,YouBike2.0_No. 82， Sec. 3， Xinsheng S. Rd.,Daan Dist.,No. 82， Sec. 3， Xinsheng S. Rd.
500101012,YouBike2.0_辛亥路一段30號前,大安區,8,辛亥路一段30號,25.01986,121.52982,YouBike2.0_No. 30， Sec. 1， Xinhai Rd.,Daan Dist.,No. 30， Sec. 1， Xinhai Rd.
500101013,YouBike2.0_和平復興路口西北側,大安區,9,復興南路二段236號,25.02543,121.54332,YouBike2.0_Heping Fuxing Rd. Intersection (Northwest),Daan Dist.,No. 236， Sec. 2， Fuxing S. Rd.
500101014,YouBike2.0_羅斯福路三段311號前,大安區,11,羅斯福路三段311號,25.01717,121.53202,YouBike2.0_No. 311， Sec. 3， Roosevelt Rd.,Daan Dist.,No. 311， Sec. 3， Roosevelt Rd.
500101015,YouBike2.0_大安運動中心停車場,大安區,19,敦南街76巷28號,25.02089,121.54697,YouBike2.0_Taipei Da-an Sports Center Parking lot,Daan Dist.,No. 28， Ln. 76， Dunnan St.
500101016,YouBike2.0_羅斯福路三段245號前,大安區,8,羅斯福路三段245號,25.01927,121.52989,YouBike2.0_No. 245， Sec. 3， Roosevelt Rd.,Daan Dist.,No. 245， Sec. 3， Roosevelt Rd.
500101018,YouBike2.0_溫州公園,大安區,5,羅斯福路三段283巷11號,25.01895,121.53156,YouBike2.0_Wenzhou Park,Daan Dist.,No. 11， Ln. 283， Sec. 3， Roosevelt Rd.
500101019,YouBike2.0_和平臥龍街口,大安區,24,臥龍街1號,25.024461,121.546705,YouBike2.0_Heping Wolong St. Intersection,Daan Dist.,No. 1， Wolong St.
500101020,YouBike2.0_溫州停車場,大安區,5,新生南路三段54巷/溫州街口,25.02093,121.5331,YouBike2.0_Wenzhou Parking Lot,Daan Dist.,Ln. 54， Sec. 3， Xinsheng S. Rd. & Wenzhou St. Intersection
500101021,YouBike2.0_銘傳國小側門,大安區,7,羅斯福路四段21號旁天橋下,25.01385,121.53549,YouBike2.0_Taipei Municipal MingChuan Elementary School(Side Gate),Daan Dist.,No. 21， Sec. 4， Roosevelt Rd.
500101022,YouBike2.0_捷運公館站(2號出口),大安區,99,捷運公館站(2號出口)外側,25.01491,121.53438,YouBike2.0_MRT Gongguan Sta. (Exit 2),Daan Dist.,MRT Gongguan Sta. (Exit 2)
500101023,YouBike2.0_第二學生活動中心,大安區,25,羅斯福路四段107號(西南側),25.01244,121.53661,YouBike2.0_2nd Student Activity Center,Daan Dist.,No. 107， Sec. 4， Roosevelt Rd.(Southwest)
500101024,YouBike2.0_臺灣科技大學正門,大安區,50,基隆路四段43號(臺灣科技大學正門旁小側門靠田徑場),25.01451,121.54142,YouBike2.0_NTUST(Main Gate),Daan Dist.,No. 43， Sec. 4， Keelung Rd.
500101025,YouBike2.0_臺灣科技大學側門,大安區,99,基隆路四段73巷與基隆路口,25.01295,121.53973,YouBike2.0_NTUST(Side Gate),Daan Dist.,Ln. 73， Sec. 4， Keelung Rd. Intersection
500101026,YouBike2.0_公館公園,大安區,30,羅斯福路四段113巷基隆路四段41巷口,25.01137,121.54062,YouBike2.0_Gongguan Park,Daan Dist.,Ln. 113， Sec. 4， Roosevelt Rd. & Ln. 41， Sec. 4， Keelung Rd. Intersection
500101027,YouBike2.0_臺灣科技大學後門,大安區,39,基隆路四段41巷68弄臺科帆船大樓旁,25.01182,121.54165,YouBike2.0_NTUST(Back Gate),Daan Dist.,Aly. 68， Ln. 41， Sec. 4， Keelung Rd.
500101028,YouBike2.0_臺大醫學院附設癌醫中心,大安區,20,基隆路三段155巷57號西側,25.01426,121.54382,YouBike2.0_NTU Cancer Center,Daan Dist.,No. 57， Ln. 155， Sec. 3， Keelung Rd.(West)
500101029,YouBike2.0_臺大環研大樓,大安區,15,芳蘭路/基隆路三段155巷口,25.01234,121.54503,YouBike2.0_NTU Environment Research Building,Daan Dist.,Fanglan Rd & Ln. 155， Sec. 3， Keelung Rd. Intersection
500101030,YouBike2.0_臺大永齡生醫工程館,大安區,34,芳蘭路51號西北側,25.0136,121.54656,YouBike2.0_NTU Yonglin Biomedical Engineering Hall,Daan Dist.,No. 51， Fanglan Rd.(Northwest)
500101031,YouBike2.0_臺大男七舍前,大安區,20,長興街/長興街80巷口西側,25.01537,121.54698,YouBike2.0_NTU 7th Men's Dorm,Daan Dist.,Ln. 80， Changxing St. Intersection(West)
500101032,YouBike2.0_臺大男一舍前,大安區,61,長興街50號西北側,25.01637,121.54535,YouBike2.0_NTU 1st Men's Dorm,Daan Dist.,No. 50， Changxing St.(Northwest)
500101033,YouBike2.0_臺大男六舍前,大安區,40,大安區長興街31號,25.01664,121.5452,YouBike2.0_NTU 6th Men's Dorm,Daan Dist.,No. 31， Changxing St.
500101034,YouBike2.0_臺大動物醫院前,大安區,18,基隆路三段155巷/基隆路四段口,25.01576,121.54291,YouBike2.0_NTU Veterinary Hospital,Daan Dist.,Ln. 155， Sec. 3， Keelung Rd. Intersection
500101035,YouBike2.0_臺大土木研究大樓前,大安區,24,辛亥路三段188號,25.01787,121.5476,YouBike2.0_NTU Civil Engineering Research Building,Daan Dist.,No. 188， Sec. 3， Xinhai Rd.
500101036,YouBike2.0_臺大萬才館前,大安區,20,臺大萬才館北側,25.02032,121.54497,YouBike2.0_NTU Wan Tsai Research Hall,Daan Dist.,NTU Wan Tsai Research Hall
500101037,YouBike2.0_臺大國青大樓宿舍前,大安區,20,辛亥路三段30號西北側,25.02076,121.54432,YouBike2.0_NTU Guo - Ching Building,Daan Dist.,No. 30， Sec. 3， Xinhai Rd.(Northwest)
500101038,YouBike2.0_臺大社科院圖書館前,大安區,27,辛亥路與復興南路口西南側,25.02101,121.54284,YouBike2.0_NTU College of social Sciences Building,Daan Dist.,Xinhai Fuxing Rd. Intersection (Southwest)
500101039,YouBike2.0_臺大法人語言訓練中心前,大安區,28,臺大法人語言訓練中心北側,25.02104,121.54081,YouBike2.0_NTU Language Training & Testing Center,Daan Dist.,NTU Language Training & Testing Center(North)
500101040,YouBike2.0_臺大綜合體育館停車場前,大安區,25,臺大綜合體育館北側,25.0222,121.53626,YouBike2.0_NTU Sports Center Car Park,Daan Dist.,NTU Sports Center(North)
500101041,YouBike2.0_辛亥新生路口東南側,大安區,50,辛亥新生路口東南側,25.02218,121.53474,YouBike2.0_Xinhai Xinsheng Rd. Intersection (Southeast),Daan Dist.,Xinhai Xinsheng Rd. Intersection (Southeast)
500101042,YouBike2.0_基隆長興路口東側,大安區,15,基隆長興路口東側,25.01727,121.54471,YouBike2.0_Keelung Changxing Rd. Intersection(East),Daan Dist.,Keelung Changxing Rd. Intersection(East)
500101091,YouBike2.0_國北教大側門南側,大安區,34,敦南街51號,25.022864,121.546622,YouBike2.0_NTUE Side Gate(South),Daan Dist.,No. 51， Dunnan St.
500101092,YouBike2.0_和平實小東北側,大安區,25,敦南街73號,25.021641,121.54704,YouBike2.0_Heping Experiment Elementary School (Northeast),Daan Dist.,No. 73， Dunnan St.
500101093,YouBike2.0_大安區健康服務中心,大安區,23,辛亥路三段15號,25.021469,121.544069,YouBike2.0_Daan District Public Health Center,Daan Dist.,No. 15， Sec. 1， Xinhai Rd.
500101094,YouBike2.0_辛亥泰順街口,大安區,20,辛亥泰順街口東南側,25.02193,121.53165,YouBike2.0_Xinhai Taishun St. Intersection,Daan Dist.,Xinhai Taishun St. Intersection (Southeast)
500101095,YouBike2.0_芳和國中,大安區,37,臥龍街170號(前),25.0189,121.55013,YouBike2.0_Fanghe Junior High School,Daan Dist.,No. 170， Wolong St.
500101097,YouBike2.0_臥龍樂業街口,大安區,41,臥龍街234-2號,25.01856,121.55558,YouBike2.0_Wolong Leye St. Intersection,Daan Dist.,No. 234-2， Wolong St.
500101098,YouBike2.0_臥龍公園,大安區,25,辛亥路三段223號西側,25.01623,121.55037,YouBike2.0_Wolong Park,Daan Dist.,No. 223， Sec. 3， Xinhai Rd. (West)
500101099,YouBike2.0_嘉興公園,大安區,44,樂業街101巷3號西北側,25.021,121.55211,YouBike2.0_Jiaxing Park,Daan Dist.,No. 3， Ln. 101， Leye St. (Northwest)
500101100,YouBike2.0_捷運麟光站(2號出口),大安區,50,和平東路三段420號東北側,25.0181,121.55929,YouBike2.0_MRT Linguang Sta. (Exit 2),Daan Dist.,No. 420， Sec. 3， Heping E. Rd. (Northeast)
500101101,YouBike2.0_捷運六張犁站,大安區,64,和平東路三段410號,25.02397,121.55266,YouBike2.0_MRT Liuzhangli Sta.,Daan Dist.,No. 410， Sec. 3， Heping E. Rd.
500101102,YouBike2.0_喬治工商,大安區,24,基隆路二段166號,25.02705,121.55551,YouBike2.0_George Vocational High School of Taipei,Daan Dist.,No. 166， Sec. 2， Keelung Rd.
500101103,YouBike2.0_法治公園,大安區,29,通化街189號西側,25.02694,121.55325,YouBike2.0_Fazhi Park,Daan Dist.,No. 189， Tonghua St. (West)
500101104,YouBike2.0_捷運臺電大樓站(2號出口),大安區,18,辛亥路一段/羅斯福路三段口北側(辛亥路側),25.02021,121.52942,YouBike2.0_MRT Taipower Building Sta. (Exit 2),Daan Dist.,Sec. 1， Xinhai Rd & Sec. 3， Roosevelt Rd (North)
500101105,YouBike2.0_和平金山路口,大安區,45,和平東路一段/金山南路二段西南側,25.02669,121.52529,YouBike2.0_Sec. 1， Heping E. Rd & Sec. 2， Jinshan S. Rd Intersection,Daan Dist.,Sec. 1， Heping E. Rd & Sec. 2， Jinshan S. Rd Intersection (Southwest)
500101107,YouBike2.0_和平龍泉街口,大安區,34,和平東路一段/龍泉街口西南側,25.02638,121.52971,YouBike2.0_Sec. 1， Heping E. Rd & Longquan St. Intersection,Daan Dist.,Sec. 1， Heping E. Rd & Longquan St. Intersection (Southwest)
500101108,YouBike2.0_和平泰順街口,大安區,19,和平東路一段/泰順街口東南側,25.02621,121.53171,YouBike2.0_Sec. 1， Heping E. Rd & Taishun St  Intersection,Daan Dist.,Sec. 1， Heping E. Rd & Taishun St  Intersection (Southeast)
500101109,YouBike2.0_臺灣師範大學(圖書館),大安區,40,和平東路一段129號前,25.0266,121.52973,YouBike2.0_National Taiwan Normal University (library),Daan Dist.,No. 129， Sec. 1， Heping E. Rd.
500101110,YouBike2.0_捷運古亭站(6號出口),大安區,60,羅斯福路二段41號前,25.0276,121.52217,YouBike2.0_MRT Guting Sta. (Exit 6),Daan Dist.,No. 41， Sec. 2， Roosevelt Rd
500101111,YouBike2.0_捷運古亭站(5號出口),大安區,14,和平東路一段19號前,25.02715,121.52293,YouBike2.0_MRT Guting Sta. (Exit 5),Daan Dist.,No. 19， Sec. 1， Heping E. Rd
500101113,YouBike2.0_臺北市立圖書館(總館),大安區,51,建國南路二段/建國南路二段151巷(橋下空間),25.02895,121.5379,YouBike2.0_Taipei Public library,Daan Dist.,Sec. 2， Jianguo S. Rd & Ln. 151， Sec. 2， Jianguo S. Rd (Under Bridge)
500101114,YouBike2.0_新生和平路口東北側,大安區,51,新生南路二段與和平東路二段口東北側,25.02657,121.53515,YouBike2.0_Sec. 2， Xinsheng S. Rd & Sec. 2， Heping E. Rd Intersection,Daan Dist.,Sec. 2， Xinsheng S. Rd & Sec. 2， Heping E. Rd (Northeast)
500101115,YouBike2.0_建國和平路口西北側,大安區,50,建國南路二段與和平東路二段口西北側,25.02606,121.53738,YouBike2.0_Sec. 2， Jianguo S. Rd & Sec. 2， Heping E. Rd Intersection,Daan Dist.,Sec. 2， Jianguo S. Rd & Sec. 2， Heping E. Rd. (Northwest)
500101116,YouBike2.0_金華公園,大安區,44,金華街249號對面,25.02984,121.53107,YouBike2.0_Jinhua Park,Daan Dist.,No. 249， Jinhua St. (Opposite)
500101117,YouBike2.0_捷運東門站(3號出口),大安區,18,信義路二段128號前,25.03383,121.52815,YouBike2.0_MRT Dongmen Sta. (Exit 3),Daan Dist.,No. 128， Sec. 2， Xinyi Rd.
500101118,YouBike2.0_金甌女中,大安區,12,信義路二段與杭州南路二段東南側,25.03519,121.5245,YouBike2.0_Jin'ou Girls High School,Daan Dist.,Sec. 2， Xinyi Rd. & Sec. 2， Hangzhou S. Rd. (Southeast)
500101119,YouBike2.0_金杭公園,大安區,20,愛國東路21巷與杭州南路二段25巷口東南側,25.03325,121.52436,YouBike2.0_Jinhang Park,Daan Dist.,Ln. 21， Aiguo E. Rd. & Ln. 25， Sec. 2， Hangzhou S. Rd. Intersection (Southeast)
500101120,YouBike2.0_愛國金山路口,大安區,43,愛國東路與杭州南路二段口西南側,25.03164,121.52661,YouBike2.0_Aiguo & Jinshan Rd. Intersection,Daan Dist.,Aiguo E. Rd. & Sec. 2， Hangzhou S. Rd. Intersection (Southwest)
500101122,YouBike2.0_敦化南路二段293巷口南側,大安區,14,敦化南路二段293巷口南側,25.0237,121.54899,YouBike2.0_Ln. 293， Sec. 2， Dunhua S. Rd (South),Daan Dist.,Ln. 293， Sec. 2， Dunhua S. Rd. (South)
500101123,YouBike2.0_敦化基隆路口,大安區,38,敦化南路二段218號,25.02215,121.54839,YouBike2.0_Sec. 2， Dunhua S. Rd & Sec. 2， Keelung Rd Intersection,Daan Dist.,No. 218， Sec. 2， Dunhua S. Rd
500101124,YouBike2.0_安和路二段181巷口,大安區,29,安和路二段185號,25.02721,121.54988,YouBike2.0_Ln. 181， Sec. 2， Anhe Rd,Daan Dist.,No185， Sec. 2， Anhe Rd
500101125,YouBike2.0_臨江街夜市(通化街101巷口),大安區,30,通化街111號,25.02952,121.55406,YouBike2.0_Linjiang St night market (Ln. 101， Tonghua St),Daan Dist.,No. 101， Tonghua St.
500101126,YouBike2.0_臨江街夜市(基隆路),大安區,29,基隆路二段108號,25.02931,121.55721,YouBike2.0_Linjiang St night market (Keelung Rd),Daan Dist.,No. 108， Sec. 2， Keelung Rd.
500101127,YouBike2.0_台北科技大學億光大樓,大安區,45,忠孝東路三段81號,25.04177,121.53833,YouBike2.0_National Taipei University of Technology (Everlight Building),Daan Dist.,No. 81， Sec. 3， Zhongxiao E. Rd.
500101128,YouBike2.0_新生南路一段119巷口,大安區,33,新生南路一段113號,25.04003,121.53299,YouBike2.0_Ln. 119， Sec. 1， Xinsheng S. Rd Intersection,Daan Dist.,No. 113， Ln. 119， Sec. 1， Xinsheng S. Rd.
500101129,YouBike2.0_幸安國小(仁愛路),大安區,28,仁愛路三段22號,25.03753,121.53523,YouBike2.0_Xing'an Elementary School (Ren'ai Rd),Daan Dist.,No. 22， Sec. 3， Ren'ai Rd.
500101130,YouBike2.0_民榮公園,大安區,15,建國南路一段304巷45號南側,25.03534,121.5354,YouBike2.0_Minrong Park,Daan Dist.,No. 45， Ln. 304， Sec. 1， Jianguo S. Rd. (South)
500101131,YouBike2.0_復興南路1段340巷口,大安區,50,復興南路一段信義路三段147巷45弄口,25.03701,121.54348,YouBike2.0_Ln. 340， Sec. 1， Fuxing S. Rd Intersection,Daan Dist.,Sec. 1， Fuxing S. Rd & Aly. 45， Ln. 147， Sec. 3， Xinyi Rd Intersection.
500101132,YouBike2.0_建國濟南路口,大安區,54,建國南路一段/濟南路三段口(東南側),25.03935,121.53828,YouBike2.0_Sec. 1， Jianguo S. Rd & Sec. 3， Jinan Rd Intersection,Daan Dist.,Sec. 1， Jianguo S. Rd & Sec. 3， Jinan Rd Intersection. (Southeast)
500101133,YouBike2.0_捷運忠孝復興站(2號出口),大安區,43,復興南路一段/仁愛路三段123巷13弄(西北側),25.04035,121.5436,YouBike2.0_MRT Zhongxiao Fuxing Sta (Exit 2),Daan Dist.,Sec. 1， Fuxing S. R & Aly. 13， Ln. 123， Sec. 3， Ren'ai Rd. (Northwest)
500101134,YouBike2.0_捷運大安站(4號出口),大安區,13,信義路4段6號(前),25.0332,121.5439,YouBike2.0_MRT Da’an Sta (Exit 4),Daan Dist.,No. 6， Sec. 4， Xinyi Rd.
500101135,YouBike2.0_捷運大安站(2號出口),大安區,26,信義路3段143號(前),25.03358,121.54141,YouBike2.0_MRT Da’an Sta (Exit 2),Daan Dist.,No. 143， Sec. 3， Xinyi Rd.
500101136,YouBike2.0_信義大安路口(信維大樓),大安區,18,信義路四段74號(前),25.03317,121.54639,YouBike2.0_Sec. 4， Xinyi Rd & Da’an Rd Intersection (Xinwei Building),Daan Dist.,No. 74， Sec. 4， Xinyi Rd.
500101137,YouBike2.0_龍門廣場,大安區,70,敦化南路一段與敦化南路一段236巷口,25.04092,121.54825,YouBike2.0_Long Men Plaza,Daan Dist.,Sec. 1， Dunhua S. Rd & Ln. 236， Sec. 1， Dunhua S. Rd Intersection.
500101138,YouBike2.0_仁愛安和路口,大安區,33,仁愛路四段258號前,25.03754,121.55285,YouBike2.0_Sec. 4， Ren'ai Rd & Sec. 1， Anhe Rd Intersection,Daan Dist.,No. 74， Sec. 4， Ren'ai Rd.
500101139,YouBike2.0_信義敦化路口,大安區,52,信義路四段155號前,25.03333,121.54977,YouBike2.0_Sec. 4， Xinyi Rd & Sec. 1， Dunhua S. Rd Intersection,Daan Dist.,No. 155， Sec. 4， Xinyi Rd
500101140,YouBike2.0_仁愛國中,大安區,25,安和路一段75號(對面),25.03706,121.55166,YouBike2.0_Ren Ai Junior High School,Daan Dist.,No. 75， Sec. 1， Anhe Rd.
500101141,YouBike2.0_捷運信義安和站(2號出口),大安區,24,信義路四段188號前,25.03304,121.55171,YouBike2.0_MRT Xinyi Anhe Sta (Exit 2),Daan Dist.,No. 188， Sec. 4， Xinyi Rd
500101142,YouBike2.0_八德市場,大安區,30,市民大道三段170號,25.04463,121.53665,YouBike2.0_Bade Traditional Market,Daan Dist.,No. 170， Sec. 3， Civic Blvd.
500101143,YouBike2.0_昌隆公園,大安區,16,市民大道三段206號西側,25.04448,121.53946,YouBike2.0_Changlong Park,Daan Dist.,No. 206， Sec. 3， Civic Blvd. (West)
500101144,YouBike2.0_捷運大安森林公園站(2號出口),大安區,69,捷運大安森林公園站(2號出口)西側,25.03332,121.53435,YouBike2.0_MRT Daan Park Sta. (Exit 2),Daan Dist.,MRT Daan Park Sta. (Exit 2) (West)
500101145,YouBike2.0_信義延吉街口,大安區,15,信義路四段353號,25.03318,121.55725,YouBike2.0_Sec. 4，Xinyi Rd & Yanji St Intersection,Daan Dist.,No. 353， Sec. 4， Xinyi Rd.
500101146,YouBike2.0_光信公園(光復南路456巷),大安區,25,延吉街249號,25.03513,121.5561,YouBike2.0_Guangxin Park (Ln. 456， Guangfu S. Rd),Daan Dist.,No. 249， Yanji St.
500101147,YouBike2.0_僑安地下停車場(2號出口)東南側,大安區,20,光復南路290巷5號,25.0391,121.5569,YouBike2.0_Qiao An Dixia Parking (Exit 2) (Southeast),Daan Dist.,No. 5， Ln. 290， Guangfu S. Rd
500101148,YouBike2.0_建國南路一段279巷口,大安區,32,建國南路一段275號,25.03635,121.53833,YouBike2.0_Ln. 279， Sec. 1， Jianguo S. Rd Intersection,Daan Dist.,No. 275， Sec. 1， Jianguo S. Rd.
500101149,YouBike2.0_捷運忠孝新生站(6號出口),大安區,15,新生南路一段101號,25.04091,121.53295,YouBike2.0_MRT Zhongxiao Xinsheng Sta. (Exit 6),Daan Dist.,No. 101， Sec. 1， Xinsheng S. Rd.
500101150,YouBike2.0_捷運忠孝新生站(4號出口),大安區,34,忠孝新生路口北側,25.04239,121.53324,YouBike2.0_MRT Zhongxiao Xinsheng Sta. (Exit 4),Daan Dist.,Zhongxiao & Xinsheng S. Rd Intersection. (North)
500101151,YouBike2.0_大安高工,大安區,23,復興南路二段52號(前),25.03126,121.54339,YouBike2.0_Daan Vocational High School,Daan Dist.,No. 52， Sec. 2， Fuxing S. Rd.
500101152,YouBike2.0_捷運忠孝新生站(3號出口),大安區,23,忠孝東路三段與10巷口,25.04189,121.53376,YouBike2.0_MRT Zhongxiao Xinsheng Sta. (Exit 3),Daan Dist.,Sec. 3， Zhongxiao E. Rd & Ln. 10， Sec. 3， Zhongxiao E. Rd Intersection
500101153,YouBike2.0_瑠公公園,大安區,20,忠孝東路四段49巷4弄/大安路口,25.04201,121.54612,YouBike2.0_Liugong Park,Daan Dist.,Aly. 4， Ln. 49， Sec. 4， Zhongxiao E. Rd./Da'an Rd. Intersection
500101154,YouBike2.0_敦化市民路口,大安區,23,敦化南路1段158號(前),25.04405,121.5486,YouBike2.0_Dunhua S. Rd. & Civic Blvd. Intersection,Daan Dist.,No. 158， Sec. 1， Dunhua S. Rd.
500101155,YouBike2.0_捷運大安森林公園站(5號出口),大安區,15,捷運大安森林公園站(5號出口)東側,25.03336,121.5364,YouBike2.0_MRT Daan Park Sta. (Exit 5),Daan Dist.,MRT Daan Park Sta. (Exit 5) (East)
500101156,YouBike2.0_信義建國路口,大安區,52,建國南路二段與信義路三段口西南側,25.0328,121.53746,YouBike2.0_Xinyi Rd. & Jianguo Rd. Intersection,Daan Dist.,Sec. 2， Jianguo S Rd. & Sec. 3， Xinyi Rd. Intersection (Southwest)
500101157,YouBike2.0_東豐公園,大安區,19,東豐街24號(旁公園路側),25.03569,121.5451,YouBike2.0_Dongfeng Park,Daan Dist.,No. 24， Dongfeng St.
500101158,YouBike2.0_德安公園(四維路66巷),大安區,14,四維路66巷6號北側,25.03473,121.54767,YouBike2.0_Dean Park,Daan Dist.,No. 6， Ln. 66， Siwei Rd.
500101159,YouBike2.0_捷運忠孝復興站(5號出口),大安區,30,復興南路一段135巷口,25.04253,121.54407,YouBike2.0_MRT Zhongxiao Fuxing Sta (Exit 5),Daan Dist.,No. 3， Ln. 135， Sec. 1， Fuxing S. Rd. (Opposite)
500101160,YouBike2.0_捷運忠孝敦化站(2號出口),大安區,17,忠孝東路四段221號,25.04153,121.5524,YouBike2.0_MRT Zhongxiao Dunhua Sta. (Exit 2),Daan Dist.,No. 221， Sec. 4， Zhongxiao E. Rd.
500101161,YouBike2.0_捷運忠孝敦化站(7號出口),大安區,18,忠孝東路四段143號,25.04159,121.54937,YouBike2.0_MRT Zhongxiao Dunhua Sta. (Exit 7),Daan Dist.,No. 143， Sec. 4， Zhongxiao E. Rd.
500101162,YouBike2.0_忠孝東路四段223巷口(市民大道側),大安區,25,忠孝東路四段223巷77號北側,25.04427,121.55291,YouBike2.0_Ln. 223， Sec. 4， Zhongxiao E. Rd. Intersection,Daan Dist.,No. 77， Ln. 223， Sec. 4， Zhongxiao E. Rd. (North)
500101163,YouBike2.0_瑞安街208巷,大安區,15,瑞安街208巷39號對面,25.02979,121.54053,YouBike2.0_Ln. 208， Rui'an St.,Daan Dist.,No. 39， Ln. 208， Rui'an St. (Opposite)
500101165,YouBike2.0_樂利路21巷口,大安區,17,樂利路25號,25.0277,121.55132,YouBike2.0_Ln. 21， Leli Rd. Intersection,Daan Dist.,No. 25， Leli Rd.
500101166,YouBike2.0_捷運科技大樓站(台北教育大學),大安區,54,和平東路二段134號前,25.02472,121.54417,YouBike2.0_MRT Technology Building Station,Daan Dist.,No. 134， Sec. 2， Heping E. Rd.
500101167,YouBike2.0_捷運國父紀念館站(2號出口),大安區,45,忠孝東路四段/光復南路口(西南側),25.04122,121.55745,YouBike2.0_MRT S.Y.S Memorial Hall Stataion(Exit 2.),Daan Dist.,Sec. 4， Jhongsiao E. Rd. & Guangfu S. Rd. Intersection (Southwest)
500101168,YouBike2.0_仁愛醫院,大安區,36,仁愛路四段/大安路一段口(西南側),25.03756,121.54587,YouBike2.0_Taipei City Hospital Renai Branch,Daan Dist.,Sec. 4， Ren'ai Rd. & Sec. 1， Da'an Rd. Intersection (Southwest)
500101169,YouBike2.0_捷運信義安和站(4號出口),大安區,49,信義路四段252號前,25.03305,121.55378,YouBike2.0_MRT Xinyi Anhe Sta.(Exit.4),Daan Dist.,No. 252， Sec. 4， Sinyi Rd.
500101170,YouBike2.0_成功國宅,大安區,36,和平東路三段1巷/四維路198巷口(西北側),25.02681,121.54668,YouBike2.0_Chengong Public Housing,Daan Dist.,Ln. 1， Sec. 3， Heping E. Rd. & Ln. 198， Sihwei Rd. Intersection (Northwest)
500101171,YouBike2.0_仁愛延吉街口,大安區,33,仁愛路四段376號前,25.03748,121.55564,YouBike2.0_Renai & Yanji Intersection,Daan Dist.,No. 376， Sec. 4， Ren'ai Rd.
500101172,YouBike2.0_捷運信義安和站(1號出口),大安區,33,信義路四段225號前,25.03331,121.55265,YouBike2.0_MRT Xinyi Anhe Sta.(Exit.1),Daan Dist.,No. 225， Sec. 4， Sinyi Rd.
500101173,YouBike2.0_敦化南路二段103巷口,大安區,24,敦化南路二段99號前,25.0287,121.54904,YouBike2.0_Ln. 103，Sec. 2，Dunhua S. Rd.,Daan Dist.,No. 99， Sec. 2， Dunhua S. Rd.
500101174,YouBike2.0_復興南路二段128巷口,大安區,41,復興南路二段142之1號前,25.02861,121.54336,YouBike2.0_Ln. 128， Sec. 2， Fuxing S. Rd.,Daan Dist.,No. 142-1， Sec. 2， Fusing S. Rd.
500101175,YouBike2.0_和平東建國南路口,大安區,17,和平東路/建國南路口(北側),25.02575,121.5377,YouBike2.0_Heping E. Rd. & Jianguo S. Rd. Intersection,Daan Dist.,Heping E. Rd. & Jianguo S. Rd. Intersection (North)
500101176,YouBike2.0_芳蘭山莊,大安區,16,基隆路三段155巷148號,25.01223,121.54788,YouBike2.0_Fanglan,Daan Dist.,No. 148， Ln. 155， Sec. 3， Keelung Rd.
500101177,YouBike2.0_復興南路一段126巷口,大安區,15,復興南路一段126巷1號前,25.04311,121.54313,YouBike2.0_Ln. 126， Sec. 1， Fuxing S. Rd.,Daan Dist.,No. 1， Ln. 126， Sec. 1， Fuxing S. Rd.
500101179,YouBike2.0_捷運東門站(5號出口),大安區,28,信義路二段178號前,25.03363,121.52962,YouBike2.0_MRT Dongmen Sta. (Exit 5),Daan Dist.,No. 178， Sec. 2， Xinyi Rd.
500101180,YouBike2.0_仁愛路四段48巷口,大安區,12,仁愛路四段48巷/東豐街(北側),25.03597,121.54693,YouBike2.0_Ln. 48， Sec. 4， Ren'ai Rd.,Daan Dist.,Ln. 48， Sec. 4， Ren'ai Rd. & Dongfeng St. Intersection (North)
500101181,YouBike2.0_捷運公館站(3號出口),大安區,99,捷運公館站(3號出口)西側,25.01551,121.53374,YouBike2.0_MRT Gongguan Sta.(Exit.3),Daan Dist.,MRT Gongguan Sta.(Exit.3)(West)
500101182,YouBike2.0_臺北科技大學(電機工程系),大安區,16,忠孝東路三段100號對側,25.04196,121.53653,YouBike2.0_NTUT(EE),Daan Dist.,No. 100， Sec. 3， Zhongxiao E. Rd. (Opposite)
500101184,YouBike2.0_新生南路三段94巷口,大安區,15,新生南路三段94號前,25.01744,121.53334,YouBike2.0_Ln. 94， Sec. 3， Xinsheng S. Rd. Intersection,Daan Dist.,No. 94， Sec. 3， Xinsheng S. Rd.
500101185,YouBike2.0_辛亥新生路口西北側,大安區,24,辛亥路一段/新生南路三段(西北側),25.02267,121.5341,YouBike2.0_Xinhai Rd. & Xinsheng S. Rd. Intersection,Daan Dist.,Sec. 1， Xinhai Rd. & Sec. 3， Xinsheng S. Rd. Intersection (Northwest)
500101186,YouBike2.0_捷運大安站(6號出口),大安區,29,復興南路一段303號前,25.03479,121.54376,YouBike2.0_MRT Da’an Sta. (Exit 6),Daan Dist.,No. 303， Sec. 1， Fuxing S. Rd.
500101187,YouBike2.0_臥龍街195巷口,大安區,14,臥龍街/臥龍街195巷(南側),25.01783,121.55224,YouBike2.0_Ln. 195， Wolong St.,Daan Dist.,Wolong St. / Ln. 195， Wolong St. Intersection (South)
500101188,YouBike2.0_辛亥路三段157巷口,大安區,27,辛亥路三段與辛亥路三段157巷口西北側,25.01727,121.54904,YouBike2.0_Ln. 157， Sec. 3， Xinhai Rd.,Daan Dist.,Sec. 3， Xinhai Rd. & Ln. 157， Sec. 3， Xinhai Rd. Intersection (Northwest)
500101189,YouBike2.0_臥龍基隆路口,大安區,28,臥龍街與基隆路二段口東北側,25.02039,121.54853,YouBike2.0_Wolong St. & Xinyi Rd. Intersection,Daan Dist.,Wolong St. & Sec. 2， Xinyi Rd. Intersection (Northeast)
500101190,YouBike2.0_敦親公園,大安區,26,和平東路二段96巷8之1號(前方),25.02347,121.54108,YouBike2.0_Dunchin Park,Daan Dist.,No. 8-1， Ln. 96， Sec. 2， Heping E. Rd.
500101191,YouBike2.0_大安運動中心,大安區,33,辛亥路三段55號前方人行道(大安運動中心),25.02054,121.54561,YouBike2.0_Taipei Daan Sports Center,Daan Dist.,No. 55， Sec. 3， Xinhai Rd.
500101192,YouBike2.0_和平敦化路口,大安區,36,和平東路三段 / 敦化南路二段口(東側),25.02444,121.54908,YouBike2.0_Heping Rd. & Dunhua Rd. Intersection,Daan Dist.,Sec. 3， Heping E. Rd. & Sec. 2， Dunhua S. Rd. Intersection (East)
500101193,YouBike2.0_基隆長興路口,大安區,51,基隆路/長興街(東南側),25.01705,121.54435,YouBike2.0_Keelung Rd. & Changxing St. Intersection,Daan Dist.,Keelung Rd. & Changxing St. Intersection (Southeast)
500101194,YouBike2.0_仁愛路四段122巷口,大安區,25,仁愛路四段118號前,25.03762,121.55009,YouBike2.0_Ln. 122， Sec. 4， Ren'ai Rd.,Daan Dist.,No. 188， Sec. 4， Ren'ai Rd.
500101196,YouBike2.0_市民敦化路口,大安區,32,敦化南路一段111號前,25.04464,121.54944,YouBike2.0_Civic Blvd. & Dunhua Rd. Intersection,Daan Dist.,No. 111， Sec. 1， Dunhua S. Rd.
500101197,YouBike2.0_忠孝東路四段49巷口,大安區,15,忠孝東路四段55號前,25.04172,121.54541,YouBike2.0_Ln. 49， Sec. 4， Zhongxiao E. Rd.,Daan Dist.,No. 55， Sec. 4， Zhongxiao E. Rd.
500101198,YouBike2.0_市民復興路口(東南側),大安區,16,市民大道四段/復興路一段口(東南側),25.04472,121.54401,YouBike2.0_Civic Blvd. & Fuxing Rd. Intersection (Southeast),Daan Dist.,Sec. 4， Civic Blvd. & Sec. 1， Fuxing S. Rd. Intersection (Southeast)
500101199,YouBike2.0_和平新生路口西南側,大安區,17,新生南路三段2號前,25.02604,121.534,YouBike2.0_Heping Rd. & Xinsheng S. Rd. Intersection (Southwest),Daan Dist.,No. 2， Sec. 3， Xinsheng S. Rd.
500101200,YouBike2.0_全安公園,大安區,16,安和路二段227巷16號對側,25.02535,121.55101,YouBike2.0_Quanan Park,Daan Dist.,No. 16， Ln. 227， Sec. 2， Anhe Rd. (Opposite)
500101201,YouBike2.0_信義路三段134巷口,大安區,19,信義路三段/信義路三段134巷口,25.03333,121.53968,YouBike2.0_Ln. 134， Sec. 3， Xinyi Rd.,Daan Dist.,Sec. 3， Xinyi Rd. & Ln. 134， Sec. 3， Xinyi Rd. Intersection
500101202,YouBike2.0_仁愛敦南圓環(東南側),大安區,16,仁愛路四段110號前,25.03715,121.54936,YouBike2.0_Renai Dunnan Traffic Cir (Southeast),Daan Dist.,No. 110， Sec. 4， Ren'ai Rd.
500101203,YouBike2.0_臺北遠企購物中心,大安區,33,敦化南路二段201號前,25.02709,121.54902,YouBike2.0_Chenggong Public House,Daan Dist.,No. 201， Sec. 2， Dunhua S. Rd.
500101204,YouBike2.0_外交部外交及國際事務學院,大安區,26,敦化南路一段280號,25.0371,121.54839,YouBike2.0_Institute of Diplomacy and International Affairs,Daan Dist.,No. 280， Sec. 1， Dunhua S. Rd.
500101205,YouBike2.0_四維路170巷口,大安區,22,敦化南路二段92號對側中央分隔島,25.02821,121.54864,YouBike2.0_Ln. 170， Siwei Rd.,Daan Dist.,No. 92， Sec. 2， Dunhua S. Rd. (Opposite)
500101206,YouBike2.0_捷運大安站(3號出口),大安區,46,信義路三段184號前,25.03328,121.5425,YouBike2.0_MRT Da’an Sta. (Exit 3),Daan Dist.,No. 184， Sec. 3， Xinyi Rd.
500101207,YouBike2.0_捷運臺電大樓站(2號出口)_1,大安區,38,羅斯福路三段201號旁,25.02055,121.52855,YouBike2.0_MRT Taipower Building Sta. (Exit 2)_1,Daan Dist.,No. 201， Sec. 3， Roosevelt Rd.
500101208,YouBike2.0_信義路四段199巷,大安區,15,信義路四段199巷/安和路一段90巷口,25.03459,121.55164,YouBike2.0_Ln. 199， Sec. 4， Xinyi Rd.,Daan Dist.,Ln. 199， Sec. 4， Xinyi Rd. & Ln. 90， Sec. 1， Anhe Rd. Intersection
500101209,YouBike2.0_臺大資訊大樓,大安區,40,辛亥路二段(臺大外語學院外),25.02101,121.54153,YouBike2.0_NTU Information Building,Daan Dist.,Sec. 2， Xinhai Rd.(NTU Language Center)
500101210,YouBike2.0_敦化南路二段81巷,大安區,40,敦化南路二段與敦化南路二段81巷口西北側,25.03002,121.54893,YouBike2.0_Ln. 81， Sec. 2， Dunhua S. Rd.,Daan Dist.,Sec. 2， Dunhua S. Rd. & Ln. 81， Sec. 2， Dunhua S. Rd. Intersection (Northwest)
500101211,YouBike2.0_原臺北刑務所官舍,大安區,23,金華街78號對側,25.03054,121.52466,YouBike2.0_Former Taipei Prison Office,Daan Dist.,No. 78， Jinhua St. (Opposite)
500101212,YouBike2.0_捷運國父紀念館站(1號出口),大安區,27,光復南路200巷26號東側,25.04205,121.55657,YouBike2.0_MRT S.Y.S Memorial Hall Sta. (Exit 1),Daan Dist.,No. 26， Ln. 200， Guangfu S. Rd. (East)
500101213,YouBike2.0_懷生國中,大安區,15,忠孝東路三段248巷30號,25.0401,121.54122,YouBike2.0_Huai Sheng Junior High School,Daan Dist.,No. 30， Ln. 248， Sec. 3， Zhongxiao E. Rd.
500101214,YouBike2.0_仁愛敦南圓環(西北側),大安區,20,仁愛路四段85號前,25.03827,121.54802,YouBike2.0_Renai Dunnan Traffic Cir (Northwest),Daan Dist.,No. 85， Sec. 4， Ren'ai Rd
500101215,YouBike2.0_立人國小,大安區,17,安和路二段/敦化南路二段81巷(西南側),25.02974,121.55146,YouBike2.0_Lih Jen International Private Elementary and Middle School,Daan Dist.,Sec. 2， Anhe Rd. & Ln. 81， Sec. 2， Dunhua S. Rd. Intersection (Southwest)
500101216,YouBike2.0_和平東路二段18巷口,大安區,24,辛亥路二段43號前,25.02268,121.53608,YouBike2.0_Ln. 18， Sec. 2， Heping E. Rd.,Daan Dist.,No. 43， Sec. 2， Xinhai Rd.
500101217,YouBike2.0_捷運大安站(5號出口),大安區,26,復興南路二段/信義路四段(東南側),25.03303,121.54372,YouBike2.0_MRT Da’an Sta. (Exit 5),Daan Dist.,Sec. 2， Fuxing S. Rd. & Sec. 4， Xinyi Rd. Intersection (Southeast)
500101218,YouBike2.0_臨江公園,大安區,23,通化街143巷33號對側,25.02832,121.55592,YouBike2.0_Linjiang Park,Daan Dist.,No. 33， Ln. 143， Tonghua St. (Opposite)
500101219,YouBike2.0_羅斯福路四段113巷19弄口,大安區,14,羅斯福路四段119巷84號對側,25.01027,121.53998,YouBike2.0_Aly. 19， Ln. 113， Sec. 4， Roosevelt Rd.,Daan Dist.,No. 84， Ln. 119， Sec. 4， Roosevelt Rd. (Opposite)
500101221,YouBike2.0_忠孝東路四段248巷口,大安區,25,忠孝東路四段230號前,25.04132,121.55393,YouBike2.0_Ln. 248， Sec. 4， Zhongxiao E. Rd.,Daan Dist.,No. 230， Sec. 4， Zhongxiao E. Rd.
500101222,YouBike2.0_仁愛延吉路口(西北側),大安區,18,仁愛路四段363號前,25.03795,121.55466,YouBike2.0_Ren'ai Rd. & Yanji St. Intersection (Northwest),Daan Dist.,No. 363， Sec. 4， Ren'ai Rd.
500101223,YouBike2.0_樂利路101巷口,大安區,13,樂利路97號前,25.02528,121.55224,YouBike2.0_Ln. 101， Leli Rd.,Daan Dist.,No. 97， Leli Rd.
500101224,YouBike2.0_羅斯福浦城街口,大安區,15,羅斯福路三段117號前,25.02208,121.52678,YouBike2.0_Roosevelt Rd. & Pucheng St. Intersection,Daan Dist.,No. 117， Sec. 3， Roosevelt Rd.
500101225,YouBike2.0_敦化南路一段295巷口,大安區,18,敦化南路一段295巷1號,25.03551,121.54951,YouBike2.0_Ln. 295， Sec. 1， Dunhua S. Rd.,Daan Dist.,No. 1， Ln. 295， Sec. 1， Dunhua S. Rd.
500101226,YouBike2.0_通安區民活動中心,大安區,28,通安街129號對面,25.02942,121.55294,YouBike2.0_Ln. 108， Tong'an St.,Daan Dist.,No. 129， Tong'an St. (Opposite)
500101227,YouBike2.0_復興忠孝東路口(東南側),大安區,28,復興南路一段191號前,25.04061,121.54389,YouBike2.0_Zhongxiao E. Rd. & Fuxing S. Rd. Intersection (Southeast),Daan Dist.,No. 191， Sec. 1， Fuxing S. Rd.
500101228,YouBike2.0_仁愛大安路口(東北側),大安區,21,仁愛路四段37號前,25.03813,121.54631,YouBike2.0_Ren'ai Rd. & Da'an Rd. Intersection (Northeast),Daan Dist.,No. 37， Sec. 4， Ren'ai Rd.
500101229,YouBike2.0_臺灣師範大學(浦城街),大安區,15,浦城街1號對側,25.02476,121.52803,YouBike2.0_National Taiwan Normal University (Pucheng St.),Daan Dist.,No. 1， Pucheng St. (Opposite)
500101230,YouBike2.0_安和路二段69巷口,大安區,20,安和路二段/安和路二段69巷,25.03056,121.55252,YouBike2.0_Ln. 69， Sec. 2， Anhe Rd.,Daan Dist.,Sec. 2， Anhe Rd. & Ln. 69， Sec. 2， Anhe Rd. Intersection
500101231,YouBike2.0_大安國小,大安區,25,臥龍街131巷11弄與樂業街108巷口,25.02014,121.55084,YouBike2.0_DaAn Elementary School,Daan Dist.,Aly. 11， Ln. 131， Wolong St. & Ln. 108， Leye St. Intersection
500101232,YouBike2.0_捷運古亭站(3號出口),大安區,15,羅斯福路二段81-1號前,25.02572,121.52359,YouBike2.0_MRT Guting Sta. (Exit 3),Daan Dist.,No. 81-1， Sec. 2， Roosevelt Rd.
500101233,YouBike2.0_捷運忠孝復興站(3號出口),大安區,37,忠孝東路四段48號前,25.04152,121.54414,YouBike2.0_MRT Zhongxiao Fuxing Sta. (Exit 3),Daan Dist.,No. 48， Sec. 4， ZhongXiao E. Rd.
500101234,YouBike2.0_和平東路二段90巷,大安區,20,和平東路二段90巷/和平東路二段76巷5弄,25.02468,121.53965,YouBike2.0_Ln. 90， Sec. 2， HePing E. Rd.,Daan Dist.,Ln. 90， Sec. 2， HePing E. Rd. & Aly. 5， Ln. 76， Sec. 2， HePing E. Rd. Intersection
500101235,YouBike2.0_光復南路420巷口,大安區,16,光復南路438號,25.03601,121.55742,YouBike2.0_Ln. 420， GuangFu S. Rd.,Daan Dist.,No. 438， GuangFu S. Rd.
500101236,YouBike2.0_富陽臥龍街口,大安區,18,富陽街129號前,25.0187,121.55688,YouBike2.0_FuYang St. & WoLong St. Intersection,Daan Dist.,No. 129， FuYang St.
500101237,YouBike2.0_仁愛復興路口,大安區,25,仁愛路四段1號前,25.03817,121.544,YouBike2.0_RenAi Rd. & FuXing Rd. Intersection,Daan Dist.,No. 1， Sec. 4， RenAi Rd.
500101238,YouBike2.0_仁愛敦南圓環(東側),大安區,16,仁愛路四段121號,25.03804,121.55042,YouBike2.0_RenAi DunNan Traffic Circle  (East),Daan Dist.,No. 121， Sec. 4， RenAi Rd.
500101239,YouBike2.0_古風公園,大安區,15,龍泉街93巷7號對側,25.02187,121.52912,YouBike2.0_GuFeng Park,Daan Dist.,No. 7， Ln. 93， LongQuan St. (Opposite)
500101240,YouBike2.0_和平東路二段76巷,大安區,40,和平東路二段96巷20弄2號旁,25.02263,121.53906,YouBike2.0_Ln. 76， Sec. 2， HePing E. Rd.,Daan Dist.,No. 2， Aly. 20， Ln. 96， Sec. 2， HePing E. Rd.
500101241,YouBike2.0_敦化信義路口(東南側),大安區,20,敦化南路二段9號,25.03276,121.54907,YouBike2.0_DunHua S. Rd. & XinYi Rd. Intersection (Southeast),Daan Dist.,No. 9， Sec. 2， DunHua S. Rd.
500101242,YouBike2.0_和平東路三段308巷口,大安區,14,樂業街173號對側,25.01883,121.5544,YouBike2.0_Ln. 308， Sec. 3， HePing E. Rd.,Daan Dist.,No. 173， LeYe St. (Opposite)
500101243,YouBike2.0_忠孝建國路口(東南側),大安區,21,忠孝東路三段132號前,25.04159,121.5378,YouBike2.0_ZhongXiao E. Rd. & JianGuo S. Rd. Intersection (Southeast),Daan Dist.,No. 132， Sec. 3， ZhongXiao E. Rd.
500101244,YouBike2.0_浦城街26巷,大安區,17,浦城街26巷8號對面,25.02324,121.52618,YouBike2.0_Ln. 26， PuCheng St.,Daan Dist.,No. 8， Ln. 26， PuCheng St. (Opposite)
500101245,YouBike2.0_青峰活動中心,大安區,25,辛亥路三段(青峰活動中心),25.01524,121.55121,YouBike2.0_Qingfeng Activity Center,Daan Dist.,Sec. 3， XinHai Rd. (Qingfeng Activity Center)
500101246,YouBike2.0_忠孝東路三段216巷口,大安區,28,忠孝東路三段218號前,25.04157,121.5402,YouBike2.0_Ln. 216， Sec. 3， ZhongXiao E. Rd.,Daan Dist.,No. 218， Sec. 3， ZhongXiao E. Rd.
500101247,YouBike2.0_捷運忠孝復興站(4號出口),大安區,25,忠孝東路四段7號前,25.04173,121.54412,YouBike2.0_MRT Zhongxiao Fuxing Sta. (Exit 4),Daan Dist.,No. 7， Sec. 4， ZhongXiao E. Rd.
500101248,YouBike2.0_和平溫州街口,大安區,23,和平東路一段187號(前),25.02634,121.53342,YouBike2.0_HePing E. Rd. & WenZhou St. Intersection,Daan Dist.,No. 187， Sec. 1， HePing E. Rd.
500101250,YouBike2.0_國立臺北教育大學創意館,大安區,32,復興南路二段337巷6弄14號對側,25.02305,121.54394,YouBike2.0_NTUE Creative Building,Daan Dist.,No. 14， Aly. 6， Ln. 337， Sec. 2， FuXing S. Rd.
500101251,YouBike2.0_捷運忠孝復興站(1號出口),大安區,27,忠孝東路三段303號,25.04199,121.54362,YouBike2.0_MRT Zhongxiao Fuxing Sta. (Exit 1),Daan Dist.,No. 303， Sec. 3， ZhongXiao E. Rd.
500101252,YouBike2.0_政大公企中心,大安區,13,金華街187號(後方人行道),25.03076,121.52781,YouBike2.0_NCCU CPBAE,Daan Dist.,No. 187， JinHua St.
500101253,YouBike2.0_大安路二段90巷口,大安區,19,大安路二段55號(對面),25.03117,121.54602,YouBike2.0_Ln. 90， Sec. 2， DaAn Rd.,Daan Dist.,No. 55， Sec. 2， DaAn Rd.
500101254,YouBike2.0_師大附中運動中心,大安區,33,信義路三段111巷143號(旁),25.03626,121.53997,YouBike2.0_HSNU Sports Center,Daan Dist.,No. 143， Ln. 111， Sec. 3， XinYi Rd.
500101256,YouBike2.0_敦化基隆路口(東北側),大安區,22,敦化南路二段333號(前),25.02196,121.54899,YouBike2.0_KeeLung Rd. & DunHua S. Rd. Intersection (Northeast),Daan Dist.,No. 333， Sec. 2， DunHua S. Rd.
500101257,YouBike2.0_龍圖公園,大安區,20,復興南路二段78巷42弄5號對面,25.0305,121.54184,YouBike2.0_Longtu Park,Daan Dist.,No. 5， Aly. 42， Ln. 78， Sec. 2， FuXing S. Rd. (Opposite)
500103001,YouBike2.0_延平國宅,大同區,30,延平北路五段1-1號(對面),25.07894,121.51121,YouBike2.0_Yanping Public Housing,Datong Dist,No. 1-1， Sec. 5， Yanping N. Rd. (Opposite)
500103002,YouBike2.0_臺北市立圖書館大同分館,大同區,40,重慶北路三段318號旁,25.0741,121.51349,YouBike2.0_Taipei Public Library DaTong Branch,Datong Dist,No. 318， Sec. 3， Chongqing N Rd.
500103003,YouBike2.0_合昌宮,大同區,15,環河北路二段371號旁,25.07717,121.50934,YouBike2.0_Hechang Temple,Datong Dist,No. 371， Sec. 2， Huanhe N. Rd.
500103004,YouBike2.0_民族延平路口,大同區,36,延平北路三段123號北側,25.06864,121.5107,YouBike2.0_Minzu Rd. & Yanping Rd. Intersection,Datong Dist,No. 123， Sec. 3， Yanping N. Rd. (North)
500103005,YouBike2.0_重慶酒泉街口,大同區,44,重慶北路三段260號前,25.07158,121.51368,YouBike2.0_Chongqing Rd. & Jiuquan St. Intersection,Datong Dist,No. 260， Sec. 3， Chongqing N. Rd.
500103006,YouBike2.0_樹德公園,大同區,14,大龍街85巷12號對側,25.06647,121.5165,YouBike2.0_Shude Park,Datong Dist,No. 12， Ln. 85， Dalong St. (Opposite)
500103007,YouBike2.0_陳天來故居,大同區,16,西寧北路112號前方,25.05601,121.50895,YouBike2.0_Chen Tian-lai Residence,Datong Dist,No. 112， Xining N. Rd.
500103008,YouBike2.0_臺北孔廟,大同區,37,哈密街61號口對側人行道,25.07378,121.51583,YouBike2.0_Taipei Confucius Temple,Datong Dist,No. 61， Hami St. Intersection (Opposite)
500103009,YouBike2.0_捷運圓山站(1號出口),大同區,81,捷運圓山站(1號出口)東側,25.07133,121.52024,YouBike2.0_MRT Yuanshan Sta. (Exit 1),Datong Dist,MRT Yuanshan Sta. (Exit 1) (East)
500103010,YouBike2.0_酒泉延平路口,大同區,41,酒泉街235號前,25.0722,121.51057,YouBike2.0_Jiuquan St. & Yanping Rd. Intersection,Datong Dist,No. 235， Jiuquan St.
500103011,YouBike2.0_重慶國中,大同區,64,敦煌路19號前,25.07567,121.51862,YouBike2.0_Chongqing Junior High School,Datong Dist,No. 19， Dunhuang Rd.
500103012,YouBike2.0_重慶北路三段383巷口,大同區,25,敦煌路與重慶北路三段383巷口,25.07598,121.51409,YouBike2.0_Ln. 383， Sec. 3， Chongqing N Rd. Intersection,Datong Dist,Dunhuang Rd. & Ln. 383， Sec. 3， Chongqing N Rd. Intersection
500103013,YouBike2.0_台北數位產業園區,大同區,24,承德路三段287號前方,25.07447,121.52003,YouBike2.0_DigiBlock Taipei,Datong Dist,No. 287， Sec. 3， Chengde Rd.
500103019,YouBike2.0_民權延平路口(西北側),大同區,20,民權西路239號前方,25.06326,121.51099,YouBike2.0_Minquan Rd. & Yanping Rd. Intersection (Northwest),Datong Dist,No. 239， Minquan W. Rd.
500103020,YouBike2.0_民權迪化街口,大同區,47,民權西路與迪化街一段口(橋墩下),25.06327,121.50943,YouBike2.0_Minquan Rd. & Dihua St. Intersection,Datong Dist,Minquan W. Rd. & Sec. 1， Dihua St. Intersection (Under Bridge)
500103021,YouBike2.0_大稻埕公園,大同區,35,安西街1巷7號(對側),25.05915,121.51033,YouBike2.0_Dadaocheng Park,Datong Dist,No. 7， Ln. 1， Anxi St. (Opposite)
500103022,YouBike2.0_大龍老人住宅,大同區,14,民族西路82號前方,25.06853,121.51729,YouBike2.0_Dalong Old People Housing,Datong Dist,No. 82， Minzu W. Rd.
500103023,YouBike2.0_大龍峒社會住宅,大同區,34,承德路三段210號旁,25.0708,121.51826,YouBike2.0_Dalongdong Social Housing,Datong Dist,No. 210， Sec. 3， Chengde Rd.
500103024,YouBike2.0_捷運大橋頭站(2號出口),大同區,57,捷運大橋頭站(2號出口)西側,25.06314,121.51308,YouBike2.0_MRT Daqiaotou Sta. (Exit 2),Datong Dist,MRT Daqiaotou Sta. (Exit 2) (West)
500103025,YouBike2.0_捷運大橋頭站(1A出口),大同區,30,民權西路237號旁,25.06325,121.51162,YouBike2.0_MRT Daqiaotou Sta. (Exit 1A),Datong Dist,No. 237， Minquan W Rd.
500103026,YouBike2.0_捷運民權西路站(2號出口),大同區,25,捷運民權西路站(2號出口)西側,25.06174,121.51969,YouBike2.0_MRT Minquan W. Rd. Sta. (Exit 2),Datong Dist,MRT Minquan W. Rd. Sta. (West)
500103027,YouBike2.0_捷運雙連站(2號出口),大同區,41,萬全街22號對面,25.05826,121.52063,YouBike2.0_MRT Shuanglian Sta. (Exit 2),Datong Dist,No. 22， Wanquan St. (Opposite)
500103028,YouBike2.0_捷運北門站(3號出口),大同區,62,塔城街與鄭州路口西南側,25.04991,121.5104,YouBike2.0_MRT Beimen. (Exit 3),Datong Dist,Tacheng St. & Zhengzhou Rd. Intersection (Southwest)
500103029,YouBike2.0_朝陽公園,大同區,10,重慶北路二段62-1號旁,25.05592,121.51367,YouBike2.0_Zhaoyang Park,Datong Dist,No. 62-1， Sec. 2， Chongqing N. Rd.
500103030,YouBike2.0_永樂市場,大同區,38,南京西路233巷103號旁,25.05454,121.51052,YouBike2.0_Yongle Market,Datong Dist,No. 103， Ln. 233， Nanjing W. Rd.
500103031,YouBike2.0_大龍公園,大同區,26,大龍街217號對側,25.07049,121.51596,YouBike2.0_Dalong Park,Datong Dist,No. 217， Dalong St. (Opposite)
500103032,YouBike2.0_重慶涼州街口,大同區,13,重慶北路二段180號旁,25.06054,121.51338,YouBike2.0_Chongcing Rd. & Liangjhou St. Intersection,Datong Dist,No. 180， Sec. 2， Chongcing N. Rd.
500103033,YouBike2.0_圓山線形公園,大同區,26,玉門街/民族西路(西北側),25.06867,121.51993,YouBike2.0_Linear Park - Yuanshan,Datong Dist,Minzu Rd. & Minzu W. Rd. Intersection (Northwest)
500103034,YouBike2.0_圓環站,大同區,31,重慶北路一段128號前,25.05369,121.51418,YouBike2.0_Yuanhuan,Datong Dist,No. 128， Sec. 1， Chongcing N. Rd.
500103035,YouBike2.0_重慶民族路口,大同區,26,重慶北路三段162號前,25.06853,121.51359,YouBike2.0_Chongcing Rd. & Minzu Rd. Intersection,Datong Dist,No. 162， Sec. 3， Chongcing N. Rd.
500103036,YouBike2.0_承德路三段8巷口,大同區,21,承德路三段14號前,25.06407,121.51822,YouBike2.0_Ln. 8， Sec. 3， Chengde Rd. Intersection,Datong Dist,No. 14， Sec. 3， Chengde Rd.
500103037,YouBike2.0_太原廣場,大同區,31,鄭州路23號(旁),25.04925,121.51468,YouBike2.0_Tai Yuan Guang Chang,Datong Dist,No. 23， Zhengzhou Rd.
500103038,YouBike2.0_國順公園,大同區,20,昌吉街117號前,25.06594,121.51078,YouBike2.0_Guoshun Park,Datong Dist,No. 117， Changji St.
500103039,YouBike2.0_聯合醫院中興院區,大同區,40,長安西路299號(對面),25.05205,121.50818,YouBike2.0_Taipei City Hospital Zhongxing Branch,Datong Dist,No. 299， Chang'an W. Rd. (Opposite)
500103040,YouBike2.0_蔣渭水紀念公園,大同區,36,錦西街/興城街口(西南側),25.06011,121.51729,YouBike2.0_Chiang Wei-shui Memorial Park,Datong Dist,Jinxi St. & Xingcheng St. Intersection (Southwest)
500103041,YouBike2.0_迪化休閒運動公園,大同區,26,延平北路四段200號(南側),25.07491,121.5115,YouBike2.0_Dihua Recreational Sports Park,Datong Dist,No. 200， Sec. 4， Yanping N. (South)
500103042,YouBike2.0_大同運動中心,大同區,16,大龍街51號(旁),25.06496,121.51608,YouBike2.0_Taipei DaTong Sports Center,Datong Dist,No. 51， Dalong St.
500103043,YouBike2.0_重慶保安街口(家樂福重慶店),大同區,20,重慶北路二段171號(旁),25.05918,121.51373,YouBike2.0_Chongqing Rd. & Bao'an St. Intersection,Datong Dist,No. 171， Sec. 2， Chongqing N. Rd.
500103044,YouBike2.0_大稻埕碼頭,大同區,52,大稻埕疏散門(淡五號水門)外,25.05662,121.50783,YouBike2.0_Dadaocheng Wharf,Datong Dist,Dadaocheng Evacuation Gate
500103045,YouBike2.0_歸綏戲曲公園,大同區,20,重慶北路二段/歸綏街口(南側),25.05805,121.51353,YouBike2.0_Guisui Park,Datong Dist,Sec. 2， Chongqing N. Rd. & Guisui St. Intersection (South)
500103046,YouBike2.0_民權國中(民權西路),大同區,17,民權西路/蘭州街(西側),25.06322,121.5144,YouBike2.0_Min-Quan Junior High School (Minquan W. Rd.),Datong Dist,Minquan W. Rd. & Lanzhou St. Intersection (West)
500103047,YouBike2.0_承德民權路口,大同區,17,承德路二段239號前,25.06247,121.51839,YouBike2.0_Chengde Rd. & Minquan Rd. Intersection,Datong Dist,No. 239， Sec. 2， Chengde Rd.
500103048,YouBike2.0_南京太原路口,大同區,29,南京西路/太原路(東側),25.05366,121.51638,YouBike2.0_Nanjing Rd. & Taiyuan Rd. Intersection,Datong Dist,Nanjing W. Rd. & Taiyuan Rd. Intersection (East)
500103049,YouBike2.0_承德民生西路口,大同區,19,承德路二段137號前,25.05756,121.51828,YouBike2.0_Chengde Rd. & Minsheng W. Rd. Intersection,Datong Dist,No. 137， Sec. 2， Chengde Rd.
500103050,YouBike2.0_太原五原路口,大同區,32,太原路 / 五原路口(東南側),25.05646,121.51698,YouBike2.0_Taiyuan Rd. & Wuyuan Rd. Intersection,Datong Dist,Taiyuan Rd. & Wuyuan Rd. Intersection (Southeast)
500103051,YouBike2.0_臺北轉運站(華陰街),大同區,20,華陰街45號(對面),25.04937,121.51914,YouBike2.0_Taipei Bus Station (Huayin St.),Datong Dist,No. 45， Huayin St. (Opposite)
500103052,YouBike2.0_捷運民權西路站(3號出口),大同區,50,民權西路70巷37號對面,25.06129,121.52021,YouBike2.0_MRT Minquan W. Rd. Sta. (Exit 3),Datong Dist,No. 37， Ln. 70， Minquan W. Rd. (Opposite)
500103053,YouBike2.0_捷運中山站(5號出口),大同區,18,南京西路57號前,25.05296,121.51938,YouBike2.0_MRT Zhongshan Sta. (Exit 5),Datong Dist,No. 57， Nanjing W. Rd.
500103054,YouBike2.0_重慶長安路口,大同區,21,長安西路244號(重慶路側),25.0515,121.51398,YouBike2.0_Chongqing Rd. & Chang'an Rd. Intersection,Datong Dist,No. 244， Chang'an W. Rd. (Sec. 1， Chongqing N. Rd.)
500103055,YouBike2.0_承德昌吉街口,大同區,18,承德路三段83號前,25.06587,121.51847,YouBike2.0_Chengde Rd. & Changji St. Intersection,Datong Dist,No. 83， Sec. 3， Chengde Rd.
500103056,YouBike2.0_大同16號廣場,大同區,14,環河北路一段/民生西路口(東南側),25.05658,121.50826,YouBike2.0_Datong Plaza No.16,Datong Dist,Sec. 1， Huanhe N. Rd. & Minsheng W. Rd. Intersection (Southeast)
500103057,YouBike2.0_捷運圓山站(2號出口),大同區,37,承德路三段/庫倫街(東南側),25.07182,121.51929,YouBike2.0_MRT Yuanshan Sta. (Exit 2),Datong Dist,Sec. 3， Chengde Rd. & Kulun St. Intersection (Southeast)
500103058,YouBike2.0_樹德公園_1,大同區,40,大龍街/大龍街85巷(東北側),25.06669,121.51615,YouBike2.0_Shude Park,Datong Dist,Dalong St. & Ln. 85， Dalong St. Intersection (Northeast)
500103059,YouBike2.0_承德鄭州路口(市民高架下),大同區,38,承德路一段/鄭州路口(市民高架下),25.04879,121.51626,YouBike2.0_Chengde Rd. & Zhengzhou Rd.  Intersection,Datong Dist,Sec. 1， Chengde Rd. & Zhengzhou Rd. (Under  Elevated Bridge)
500103060,YouBike2.0_成淵高中,大同區,14,錦西街與錦西街52巷口東北側,25.06036,121.51996,YouBike2.0_ChengYuan High School,Datong Dist,Jinxi St. & Ln. 52， Jinxi St. Intersection (Northeast)
500103061,YouBike2.0_雙蓮國小,大同區,20,民權西路102巷4弄25號對側人行道,25.06157,121.51683,YouBike2.0_ShuangLian Elementary School,Datong Dist,No. 25， Aly. 4， Ln. 102， Minquan W. Rd. (Opposite)
500103062,YouBike2.0_寧夏涼州街口,大同區,15,寧夏路141號對側,25.06095,121.51428,YouBike2.0_Ningxia Rd. & Liangzhou St. Intersection,Datong Dist,No. 141， Ningxia Rd. (Opposite)
500103063,YouBike2.0_延平涼州街口,大同區,14,延平北路二段/涼州街口(行人天橋下),25.06092,121.51126,YouBike2.0_Yanping Rd. & Liangzhou St. Intersection,Datong Dist,Sec. 2， Yanping N. Rd. & Liangzhou St. Intersection
500103064,YouBike2.0_大同行政中心,大同區,16,昌吉街63號旁,25.06603,121.51481,YouBike2.0_Datong District Admin. Center,Datong Dist,No. 63， Changji St.
500103065,YouBike2.0_大龍市場,大同區,15,重慶北路三段335巷13號對面,25.07473,121.51451,YouBike2.0_Dalong Market,Datong Dist,No. 13， Ln. 335， Sec. 3， Chongqing N. Rd. (Opposite)
500103066,YouBike2.0_南京西寧北路口(西北側),大同區,13,南京西路/西寧北路(西北側),25.05348,121.50855,YouBike2.0_NanJing W. Rd. & XiNing N. Rd. Intersection (Northwest),Datong Dist,NanJing W. Rd. & XiNing N. Rd. Intersection (Northwest)
500103068,YouBike2.0_哈密街23巷19弄口,大同區,23,敦煌路78號,25.07563,121.51815,YouBike2.0_Aly. 19， Ln. 23， Hami St.,Datong Dist,No. 78， Dunhuang Rd.
500103069,YouBike2.0_民權西路160巷口,大同區,15,民權西路160巷口西側,25.06289,121.51544,YouBike2.0_Ln. 160， MinQuan W. Rd.,Datong Dist,Ln. 160， MinQuan W. Rd. (West)
500103070,YouBike2.0_重慶北路三段205巷口,大同區,19,重慶北路三段203-5號前,25.06997,121.51388,YouBike2.0_Ln. 205， Sec. 3， ChongQing N. Rd.,Datong Dist,No. 203-5， Sec. 3， ChongQing N. Rd.
500103071,YouBike2.0_承德路二段91巷口,大同區,20,承德路二段91巷/承德路二段(東南側),25.05621,121.51847,YouBike2.0_Ln. 91， Sec. 2， ChengDe Rd.,Datong Dist,Ln. 91， Sec. 2， ChengDe Rd. & ChengDe Rd. Intersection (Southeast)
500103072,YouBike2.0_酒泉庫倫街口,大同區,15,酒泉街52號(前),25.07194,121.51626,YouBike2.0_JiuQuan St. & KuLun St. Intersection,Datong Dist,No. 52， JiuQuan St.
500103073,YouBike2.0_民族西大龍街口,大同區,16,民族西路165號(前),25.06864,121.51559,YouBike2.0_MinZu W. Rd. & DaLong St. Intersection,Datong Dist,No. 165， MinZu W. Rd.
500103074,YouBike2.0_承德路三段324巷口,大同區,45,承德路三段316號(旁),25.07477,121.51977,YouBike2.0_Ln. 324， Sec. 3， ChengDe Rd.,Datong Dist,No. 316， Sec. 3， ChengDe Rd.
500103075,YouBike2.0_玉泉公園(鄭州路),大同區,20,鄭州路/西寧北路(西南側),25.05044,121.50766,YouBike2.0_YuQuan Park (ZhengZhou Rd.),Datong Dist,ZhengZhou Rd. & XinIng N. Rd. Intersection (Southwest)
500103076,YouBike2.0_玉泉公園(忠孝西路),大同區,25,忠孝西路二段/西寧北路(西北側),25.04888,121.50745,YouBike2.0_YuQuan Park (ZhongXiao W. Rd.),Datong Dist,Sec. 2， ZhongXiao W. Rd. & XinIng N. Rd. Intersection (Northwest)
500104001,YouBike2.0_劍潭抽水站,士林區,17,通河東街325巷/通河東街口,25.08128,121.51784,YouBike2.0_Jiantan Pumping Station,Shilin Dist,Ln. 325， Tonghe St. Intersection
500104002,YouBike2.0_通河東街大南路口,士林區,15,通河東街1段192號(旁),25.08914,121.51542,YouBike2.0_Tonghe E. St. & Danan Rd. Intersection,Shilin Dist,No. 192， Sec.1， Tonghe E. St. (Side)
500104003,YouBike2.0_福港街停車場,士林區,38,華齡街175號(旁),25.08695,121.51901,YouBike2.0_Fugang St. Parking Lot,Shilin Dist,No. 175， Hualing St. (Side)
500104004,YouBike2.0_百齡國小,士林區,50,前港街104號(對面),25.08521,121.51918,YouBike2.0_Bailing Elementary School,Shilin Dist,No. 104， Qiangang St. (Opposite)
500104005,YouBike2.0_雨聲街165巷口,士林區,24,雨聲街/雨聲街165巷(西北側),25.10277,121.53357,YouBike2.0_Ln. 165， Yusheng St. Intersection,Shilin Dist,Ln. 165， Yusheng St. Intersection (Northwest)
500104006,YouBike2.0_天和公園,士林區,16,中山北路七段14巷(公園西側),25.12011,121.53357,YouBike2.0_Tianhe Park,Shilin Dist,No.30， Ln.69， Tianmu E. Rd. (Front)
500104007,YouBike2.0_中山天母路口,士林區,29,天母西路3-55號前人行道,25.11856,121.52964,YouBike2.0_Zhongshan & Tianmu Rd. Intersection,Shilin Dist,No. 3-55， Tianmu W. Rd. (Front)
500104008,YouBike2.0_天母運動公園,士林區,50,忠誠路二段/忠誠路二段207巷(東南側),25.11633,121.53414,YouBike2.0_Tianmu Sports Park,Shilin Dist,Ln. 207， Sec.2， Zhongcheng Rd. (Southeast)
500104009,YouBike2.0_臺北市立大學(天母校區),士林區,48,士東路276號至280號對面人行道,25.11356,121.53718,YouBike2.0_University of Taipei (Tianmu Campus),Shilin Dist,No. 276-280， Shidong Rd. (Opposite)
500104010,YouBike2.0_忠誠路二段53巷,士林區,37,忠誠路2段53巷7號(對面),25.11127,121.53244,YouBike2.0_Ln. 53， Sec. 2， Zhongcheng Rd.,Shilin Dist,No.7， Ln. 53， Sec. 2， Zhongcheng Rd. (Opposite)
500104012,YouBike2.0_天母棒球場,士林區,26,忠誠路二段122號(對面),25.11341,121.53195,YouBike2.0_Taipei Tianmu Baseball Stadium,Shilin Dist,No. 122， Sec. 2， Zhongcheng Rd. (Opposite)
500104013,YouBike2.0_天母北天玉街口,士林區,15,天母北路33號(前),25.12011,121.52652,YouBike2.0_Tianmu N. Rd. & Tianyu St. Intersection,Shilin Dist,No. 33， Tianmu N. Rd.
500104014,YouBike2.0_蘭興公園,士林區,56,中山北路六段/士東路(西北側),25.11184,121.52589,YouBike2.0_Lanxing Park,Shilin Dist,Sec. 6， Zhongshan N. Rd. & Shidong Rd. Intersection (Northwest)
500104015,YouBike2.0_明勝公園,士林區,14,承德路4段6巷71號(對面),25.08009,121.51895,YouBike2.0_Mingsheng Park,Shilin Dist,No. 71， Ln. 6， Sec.4， Chengde Rd. (Opposite)
500104016,YouBike2.0_劍潭海外青年活動中心,士林區,23,中山北路4段/通河街口,25.07994,121.52426,YouBike2.0_Chientan Youth Activity Center,Shilin Dist,Sec. 4， Zhongshan N. Rd. & Tonghe St. Intersection
500104018,YouBike2.0_忠誠路一段173巷口,士林區,11,忠誠路一段177號(前),25.10813,121.5304,YouBike2.0_No. 173， Sec. 1， Zhongcheng Rd. Intersection,Shilin Dist,No. 177， Sec. 1， Zhongcheng Rd.
500104019,YouBike2.0_雨農國小,士林區,21,忠義街6號對側,25.1054,121.5295,YouBike2.0_Yunong Elementary School,Shilin Dist,No. 127， Sec. 1， Zhongcheng Rd.
500104020,YouBike2.0_忠誠公園,士林區,25,忠誠路一段18號(對面),25.10399,121.52593,YouBike2.0_Zhongcheng Park,Shilin Dist,No. 18， Sec. 1， Zhongcheng Rd.
500104021,YouBike2.0_芝山抽水站,士林區,41,至誠路二段47-49號(前),25.10155,121.52832,YouBike2.0_Zhishan Pumping Plant,Shilin Dist,No. 47， Sec. 2， Zhicheng Rd.
500104022,YouBike2.0_至誠路一段305巷口,士林區,21,至誠路一段303號(對面),25.10186,121.53083,YouBike2.0_Ln. 305， Sec. 1， Zhicheng Rd. Intersection,Shilin Dist,No. 303， Sec. 1， Zhicheng Rd.
500104023,YouBike2.0_華齡公園,士林區,32,劍潭路76號(對面),25.08302,121.52069,YouBike2.0_Hualing Park,Shilin Dist,No. 76， Jiantan Rd. (Opposite)
500104024,YouBike2.0_前港公園(福德宮),士林區,18,後港街134巷/後港街口,25.08671,121.52096,YouBike2.0_Qiangang Park(Fude Temple),Shilin Dist,Ln. 134， Hougang/Hougang St. Intersection
500104025,YouBike2.0_華齡街185巷口,士林區,12,華齡街188號(前),25.08828,121.51985,YouBike2.0_Ln. 185， Hualing St.,Shilin Dist,No. 188， Hualing St.
500104026,YouBike2.0_前港公園(前港街),士林區,27,前港街48號(對面),25.0848,121.52125,YouBike2.0_Qiangang Park (Qiangang St),Shilin Dist,No. 48， Qiangang St. (Opposite)
500104027,YouBike2.0_百齡高中,士林區,27,承德路四段179巷/承德路4段口,25.08736,121.52272,YouBike2.0_Bailing High School,Shilin Dist,Ln. 179， Sec. 4， Chengde Rd. Intersection
500104028,YouBike2.0_捷運芝山站(2號出口),士林區,21,福華路151號(對面),25.10364,121.52219,YouBike2.0_MRT Zhishan Station,Shilin Dist,No. 151， Fuhua Rd. (Opposite)
500104029,YouBike2.0_臺灣戲曲中心,士林區,25,文林路751號(南側),25.10208,121.51979,YouBike2.0_Taiwan Traditional Theatre Center,Shilin Dist,No. 751， Wenlin Rd. (South)
500104030,YouBike2.0_捷運劍潭站(2號出口),士林區,49,基河路18號(對面),25.08388,121.52535,YouBike2.0_MRT Jianta Station,Shilin Dist,No.18， Jihe Rd. (Opposite)
500104031,YouBike2.0_劍潭基河路口,士林區,66,劍潭路基河路口(捷運站橋下空間),25.08403,121.5249,YouBike2.0_Jiantan Rd & Jihe Rd Intersection,Shilin Dist,Jiantan Rd. & Jihe Rd. Intersection
500104032,YouBike2.0_志成公園,士林區,23,中正路/雨農路口(西北側),25.09667,121.53206,YouBike2.0_Zhicheng Park,Shilin Dist,Jhongjheng Rd & Yunong Rd. Intersection (Northwest)
500104033,YouBike2.0_福林國小,士林區,14,福志路50號(對面),25.09896,121.53025,YouBike2.0_Fu-Lin Elementary School,Shilin Dist,No. 50， Fuzhi Rd. (Opposite)
500104034,YouBike2.0_中山中正路口,士林區,19,中山北路五段609號(前),25.09651,121.52753,YouBike2.0_Sec. 5， Jhongshan N. Rd & Jhongjheng Rd Intersection,Shilin Dist,No. 609， Sec. 5， Jhongshan N. Rd.
500104035,YouBike2.0_士林運動中心,士林區,30,士商路1號(前),25.08911,121.52154,YouBike2.0_Shihlin Sport Center,Shilin Dist,No. 1， Shishang Rd.
500104036,YouBike2.0_陽明高中,士林區,36,中正路510號(前),25.09164,121.51706,YouBike2.0_Yangming High School,Shilin Dist,No. 510， Zhongzheng Rd.
500104037,YouBike2.0_兒童新樂園,士林區,23,承德路五段55號(旁公車亭),25.09631,121.51449,YouBike2.0_Taipei Children's Amusement Park,Shilin Dist,No. 55， Sec. 5， Chengde Rd.
500104038,YouBike2.0_臺北市立天文館,士林區,46,基河路363號(前),25.09598,121.51776,YouBike2.0_Taipei Astronomical Museum,Shilin Dist,No. 363， Jihe Rd.
500104039,YouBike2.0_華聲公園,士林區,35,華聲街17號(南側路側),25.09619,121.5223,YouBike2.0_Huasheng Park,Shilin Dist,No. 17， Huasheng St. (South)
500104040,YouBike2.0_福林公園,士林區,25,福林路/中山北路五段(東北側),25.09419,121.52833,YouBike2.0_Fulin Park,Shilin Dist,Sec. 5， Zhongshan N. Rd. (Northwest)
500104041,YouBike2.0_捷運士林站(2號出口),士林區,30,中山北路五段505巷44弄2號(對面),25.09343,121.52642,YouBike2.0_MRT Shilin Station (Exit 2),Shilin Dist,No. 2， Aly. 44， Ln. 505， Sec. 5， Zhongshan N. Rd. (Opposite)
500104042,YouBike2.0_銘傳大學,士林區,26,中山北路五段250號(銘傳大學對側),25.08771,121.52677,YouBike2.0_Ming Chuan University Taipei Campus,Shilin Dist,No. 250， Sec. 5， Zhongshan N. Rd.
500104043,YouBike2.0_士林高商,士林區,26,士商路150號(校門旁),25.09435,121.51702,YouBike2.0_Shilin High School of Commerce,Shilin Dist,No. 150， Shishang Rd.
500104044,YouBike2.0_蘭雅公園,士林區,38,忠誠路二段/忠誠路二段40巷(西南側),25.10991,121.53039,YouBike2.0_Lanya Park,Shilin Dist,Ln. 40， Sec. 2， Zhongcheng Rd. Intersection (Southwest)
500104045,YouBike2.0_聯合醫院陽明院區,士林區,25,雨聲街105號(南側),25.10455,121.53195,YouBike2.0_Taipei City Hospital Yangming Branch,Shilin Dist,No. 105， Yusheng St. (South)
500104046,YouBike2.0_捷運芝山站(1號出口),士林區,35,福華路114號(對面),25.10225,121.52286,YouBike2.0_MRT Zhishan Sta. (Exit 1),Shilin Dist,No. 114， Fuhua Rd. (Opposite)
500104047,YouBike2.0_至誠公園,士林區,20,至誠路一段80號(對面),25.10143,121.53585,YouBike2.0_Zhicheng Park,Shilin Dist,No. 80， Sec. 1， Zhicheng Rd. (Opposite)
500104048,YouBike2.0_原住民文化主題公園,士林區,21,至善路二段280號(對面),25.10113,121.55159,YouBike2.0_Indigenous People's Park,Shilin Dist,No. 280， Sec. 2， Zhishan Rd. (Opposite)
500104049,YouBike2.0_通河東街2段10巷口,士林區,15,通河東街2段5號(對面),25.09106,121.51502,YouBike2.0_Ln. 10， Sec. 2， Tonghe E. St. Intersection,Shilin Dist,No. 5， Sec. 2， Tonghe E. St. (Opposite)
500104050,YouBike2.0_梅林新村,士林區,25,至善路一段/至善路一段138巷(北側),25.09755,121.54036,YouBike2.0_Meilin New Village,Shilin Dist,Sec. 1， Zhishan Rd & Ln. 138， Sec. 1， Zhishan Rd (North)
500104051,YouBike2.0_延平北中正路口,士林區,30,中正路613號(對面),25.08678,121.50948,YouBike2.0_Yanping N. Rd & Zhongzheng Rd Intersection,Shilin Dist,No. 403， Zhongzheng Rd
500104052,YouBike2.0_重慶北路四段190巷口,士林區,13,重慶北路四段198號(前),25.08505,121.51166,YouBike2.0_Ln. 190， Sec. 4， Chongqing N. Rd Intersection,Shilin Dist,No. 198， Sec. 4， Chongqing N. Rd
500104053,YouBike2.0_重慶北葫東街口,士林區,15,重慶北路四段177號(前),25.08393,121.51169,YouBike2.0_Sec. 4， Chongqing N. Rd.& Hudong St Intersection,Shilin Dist,No. 177， Sec. 4， Chongqing N. Rd.
500104054,YouBike2.0_葫蘆國小,士林區,30,環河北路三段/葫蘆街(東北側),25.08254,121.5075,YouBike2.0_Hulu Elementary School,Shilin Dist,Sec. 3， Huanhe N. Rd & Hulu St. (Northeast)
500104055,YouBike2.0_士林3號廣場,士林區,38,中山北路六段81號(旁),25.10459,121.52417,YouBike2.0_Shilin Plaza,Shilin Dist,No. 81， Sec 6， Zhongshan N. Rd.
500104056,YouBike2.0_社正公園,士林區,15,社中街39號(對面),25.08824,121.51054,YouBike2.0_Shezheng Park,Shilin Dist,No. 39， Shezhong St. (Opposite)
500104057,YouBike2.0_社子國小,士林區,15,社中街476號(對面),25.09058,121.50142,YouBike2.0_Shezi Elementary School,Shilin Dist,No. 476， Shezhong St. (Opposite)
500104058,YouBike2.0_社中街384巷口,士林區,24,通河西街二段194號(對面),25.09346,121.50376,YouBike2.0_Ln. 384， Shezhong St Intersection,Shilin Dist,No. 194， Sec. 2， Tonghe W. St. (Opposite)
500104059,YouBike2.0_忠誠路一段138號,士林區,15,忠誠路一段138號(斜前方),25.10641,121.52944,YouBike2.0_No. 138， Sec. 1， Zhongcheng Rd,Shilin Dist,No. 138， Sec. 1， Zhongcheng Rd. (Diagonally across)
500104060,YouBike2.0_社子公園,士林區,31,永平街20巷37弄/永平街20巷11弄(社子公園南側),25.0902,121.50622,YouBike2.0_Shezi Park,Shilin Dist,Aly. 37， Ln. 20， Yongping St & Aly. 11， Ln. 20， Yongping St Intersection.
500104061,YouBike2.0_國立故宮博物院,士林區,17,力行街8號(對面),25.09833,121.54788,YouBike2.0_National Palace Museum,Shilin Dist,No. 8， Lixing St. (Opposite)
500104062,YouBike2.0_泰北高中,士林區,23,福林路240號(前),25.09763,121.53402,YouBike2.0_Taibei High School,Shilin Dist,No. 240， Fulin Rd.
500104063,YouBike2.0_後港公園,士林區,15,通河東街二段26號(旁公園),25.09312,121.51419,YouBike2.0_Hougang Park,Shilin Dist,No. 26， Sec. 2， Tonghe E. St. (Side)
500104064,YouBike2.0_重慶北路四段117號,士林區,24,重慶北路四段117號(前),25.08279,121.51219,YouBike2.0_No. 117， Sec. 4， Chongqing N. Rd,Shilin Dist,No. 117， Sec. 4， Chongqing N. Rd.
500104065,YouBike2.0_社子島島頭公園,士林區,22,延平北路九段323號(後方堤外),25.10893,121.46639,YouBike2.0_Daotou Park,Shilin Dist,No. 323， Sec. 9， Yanping N. Rd. (Back)
500104066,YouBike2.0_延平北路八段133巷口,士林區,22,延平北路八段133巷42號(對面),25.10304,121.48297,YouBike2.0_Ln. 133， Sec. 8， Yanping N. Rd Intersection,Shilin Dist,No. 67， Ln. 133， Sec. 8， Yanping N. Rd Intersection. (Opposite)
500104067,YouBike2.0_坤天亭,士林區,14,延平北路八段96巷15號(前),25.1064,121.4836,YouBike2.0_Kuntian Temple,Shilin Dist,No. 15， Ln. 96， Sec. 8， Yanping N. Rd.
500104068,YouBike2.0_社子島濕地解說小築,士林區,15,社子島濕地解說小築,25.11314,121.48974,YouBike2.0_Shezidao Wetlands Service Center,Shilin Dist,Shezidao Wetlands Service Center
500104069,YouBike2.0_福安國中,士林區,25,延平北路七段250號(前),25.10261,121.48819,YouBike2.0_Fu'an Junior High School,Shilin Dist,No. 250， Sec. 7， Yanping N. Rd.
500104070,YouBike2.0_福安消防分隊,士林區,20,延平北路七段42之7號(對面),25.09669,121.49706,YouBike2.0_Taipei City Fire Department of Fuan Station,Shilin Dist,No. 42-7， Sec. 7， Yanping N. Rd. (Opposite)
500104071,YouBike2.0_聖山綠地,士林區,15,忠義街94號(旁),25.10696,121.53234,YouBike2.0_Shengshan Greens,Shilin Dist,No. 94， Zhongyi St.
500104072,YouBike2.0_芝山國小,士林區,38,德行東路285號(德行東路283巷側人行道),25.11044,121.53595,YouBike2.0_Zhishan Elementary School,Shilin Dist,No. 285， Dexing E. Rd. (Ln. 283， Dexing E. Rd)
500104073,YouBike2.0_士林新天地,士林區,29,大南路325號前方,25.08899,121.51751,YouBike2.0_Shilin New Village,Shilin Dist,No.325， Danan Rd.
500104074,YouBike2.0_蘭雅國小,士林區,30,礦溪街與中山北路六段195巷口,25.10775,121.52312,YouBike2.0_Lanya Elementary School,Shilin Dist,Huangsi St. & Ln. 195， Sec. 6， Jhongshan N. Rd. Intersection
500104075,YouBike2.0_中正基河路口,士林區,37,中正路420號前,25.0933,121.51962,YouBike2.0_Jhongjheng Rd. & Jihe Rd. Intersection,Shilin Dist,No. 420， Jhongjheng Rd.
500104076,YouBike2.0_福林公園(中正路),士林區,45,中正路/志成街口(南側),25.09609,121.53006,YouBike2.0_Fulin Park (Jhongjheng Rd.),Shilin Dist,Jhongjheng Rd. & Jhihcheng St. Intersection (South)
500104077,YouBike2.0_至善臨溪路口,士林區,48,至善路一段/臨溪路(西南側),25.09709,121.54229,YouBike2.0_Jhihshan Rd. & Linsi Rd. Intersection,Shilin Dist,Sec. 1， Jhihshan Rd. & Linsi Rd. Intersection (Southwest)
500104078,YouBike2.0_市立圖書館葫蘆堵分館,士林區,13,延平北路五段136巷1號前,25.08217,121.51074,YouBike2.0_Taipei Public Library Huludu Branch,Shilin Dist,No. 1， Ln. 136， Sec. 5， Yanping N. Rd.
500104079,YouBike2.0_東山路110巷口,士林區,16,東山路114號對側,25.11306,121.53945,YouBike2.0_Ln. 110， Dongshan Rd.,Shilin Dist,No. 114， Dongshan Rd. (Opposite)
500104080,YouBike2.0_永平社會住宅,士林區,15,環河北路三段261巷2號,25.08887,121.50314,YouBike2.0_Yongping Social Housing,Shilin Dist,No. 2， Ln. 261， Sec. 3， Huanhe N. Rd.
500104081,YouBike2.0_雨農橋,士林區,16,福志路14巷42號(對面),25.10012,121.53253,YouBike2.0_Yunong Bridge,Shilin Dist,No. 42， Ln. 14， Fuzhi Rd. (Opposite)
500104082,YouBike2.0_通河街76巷/承德路四段10巷口,士林區,14,承德路四段10巷37號(旁),25.08019,121.5202,YouBike2.0_Ln. 76， Tonghe St. & Ln. 10， Sec. 4， Chengde Rd. Intersection,Shilin Dist,No. 37， Ln. 10， Sec. 4， Chengde Rd.
500104083,YouBike2.0_芝山聖佑宮,士林區,25,雨聲街90號旁,25.10455,121.53025,YouBike2.0_Zhishan Shengyou Temple,Shilin Dist,No. 90， Yusheng St.
500104084,YouBike2.0_至誠雨聲街口,士林區,9,至誠路二段與雨聲街口東北側,25.10199,121.52927,YouBike2.0_Zhicheng Rd. & Yusheng St. Intersection,Shilin Dist,Sec. 2， Zhicheng Rd. & Yusheng St. Intersection (Northeast)
500104085,YouBike2.0_捷運線型公園(後街),士林區,28,後街15號旁,25.09812,121.52449,YouBike2.0_MRT Linear Park (Hou St.),Shilin Dist,No. 15， Hou St.
500104086,YouBike2.0_天母公園,士林區,12,中山北路七段141巷30號對側,25.12408,121.53003,YouBike2.0_Tianmu Park,Shilin Dist,No. 30， Ln. 141， Sec. 7， Zhongshan N. Rd. (Opposite)
500104087,YouBike2.0_基河文林路口,士林區,50,基河路3-1號對側人行道,25.08637,121.5247,YouBike2.0_Jihe Rd. & Wenlin Rd. Intersection,Shilin Dist,No. 3-1， Jihe Rd. (Opposite)
500104088,YouBike2.0_文林福華路口,士林區,19,文林路 / 福華路口(東側),25.10094,121.52243,YouBike2.0_Wenlin Rd. & Fude Rd. Intersection,Shilin Dist,Wenlin Rd. & Fude Rd. Intersection (East)
500104089,YouBike2.0_劍潭海外青年活動中心_1,士林區,39,通河街 / 通河街2巷(南側),25.0796,121.5237,YouBike2.0_Chientan Overseas Youth Activity Center_1,Shilin Dist,Tonghe St. & Ln. 2， Tonghe St.
500104090,YouBike2.0_社子國小_1,士林區,36,延平北路六段/社中街(社子國小對面跨提便道橋下),25.09029,121.50189,YouBike2.0_SheZi Elementary School,Shilin Dist,Sec. 6， Yanping N. Rd./Shezhong St. Intersection (South)
500104091,YouBike2.0_捷運劍潭站(1號出口),士林區,70,捷運劍潭站(1號出口)北側,25.08577,121.52531,YouBike2.0_MRT Jianta Sta. (Exit 1),Shilin Dist,MRT Jianta Sta. (Exit 1) (North)
500104092,YouBike2.0_德行東山路口,士林區,12,德行東路/東山路(西北側),25.1107,121.53999,YouBike2.0_Dexing Rd. & Dongshan Rd. Intersection,Shilin Dist,Dexing E. Rd. & Dongshan Rd. Intersection (Northwest)
500104094,YouBike2.0_重慶北通河西街口,士林區,12,重慶北路四段276號(前),25.08756,121.51177,YouBike2.0_Chongqing N. Rd. & Tonghe W. St. Intersection,Shilin Dist,No. 276， Sec. 4， Chongqing N. Rd.
500104095,YouBike2.0_葫蘆國小(延平北路五段285巷),士林區,25,環河北路三段/延平北路五段285巷,25.08406,121.5067,YouBike2.0_Hulu Elementary School (Ln. 285， Sec. 5， Yanping N. Rd.),Shilin Dist,Sec. 3， Huanhe N. Rd. & Ln. 285， Sec. 5， Yanping N. Rd. Intersection
500104096,YouBike2.0_社子市場,士林區,15,延平北路六段67號旁,25.0881,121.50873,YouBike2.0_Shezi Market,Shilin Dist,No. 67， Sec. 6， Yanping N. Rd.
500104097,YouBike2.0_士林區農會社子分部,士林區,8,社子街162號旁,25.08912,121.5049,YouBike2.0_Shilin District Farmers' Association (Shezi St.),Shilin Dist,No. 162， Shezi St.
500104098,YouBike2.0_承德劍潭路口,士林區,19,承德路四段與劍潭路口西側,25.0841,121.52341,YouBike2.0_Chengde Rd. & Jiantan Rd. Intersection,Shilin Dist,Sec. 4， Chengde Rd. & Jiantan Rd. Intersection (West)
500104099,YouBike2.0_文林路101巷口,士林區,17,文林路100號前,25.08761,121.52608,YouBike2.0_Ln. 101， Wenlin Rd.,Shilin Dist,No. 100， Wenlin Rd.
500104100,YouBike2.0_延平北路五段257巷15弄口,士林區,11,葫蘆街184號對側,25.08408,121.50959,YouBike2.0_Aly. 15， Ln. 257， Sec. 5， Yanping N. Rd.,Shilin Dist,No. 184， Hulu St.
500104101,YouBike2.0_延平北路五段257巷4弄口,士林區,15,延平北路五段257巷17號前,25.08471,121.5089,YouBike2.0_Aly. 4， Ln. 257， Sec. 5， Yanping N. Rd.,Shilin Dist,No. 17， Ln. 257， Sec. 5， Yanping N. Rd.
500104102,YouBike2.0_啟明學校,士林區,16,忠誠路二段200號(新光三越天母店)對側,25.11742,121.53472,YouBike2.0_Taipei School For The Visually Impaired,Shilin Dist,No. 200， Sec. 2， Zhongcheng Rd. (Opposite)
500104103,YouBike2.0_中山福國路口,士林區,14,中山北路五段837號前,25.10203,121.52561,YouBike2.0_Zhongshan N. Rd. & Fuguo Rd. Intersection,Shilin Dist,No. 837， Sec. 5， Zhongshan N. Rd.
500104104,YouBike2.0_德行公園,士林區,14,德行西路33號對側,25.10585,121.52376,YouBike2.0_Dexing Park,Shilin Dist,No. 33， Dexing W. Rd. (Opposite)
500104105,YouBike2.0_承德後港街口,士林區,20,承德路四段/後港街口,25.08238,121.52309,YouBike2.0_Chengde Rd & Hougang St. Intersection,Shilin Dist,Sec. 4， Chengde Rd & Hougang St. Intersection
500104106,YouBike2.0_中山北路五段698巷口,士林區,15,中山北路五段692號前,25.09765,121.52757,YouBike2.0_Ln. 698， Sec. 5， Zhongshan N. Rd.,Shilin Dist,No. 692， Sec. 5， Zhongshan N. Rd.
500104107,YouBike2.0_捷運士林站(1號出口),士林區,38,中正路236巷/中正路口,25.09561,121.52552,YouBike2.0_MRT Shilin Sta. (Exit 1),Shilin Dist,Ln. 236， Zhongzheng Rd. & Zhongzheng Rd. Intersection
500104108,YouBike2.0_捷運芝山站(2號出口)_1,士林區,62,福華路/福華路162巷(東南側),25.10336,121.52263,YouBike2.0_MRT Zhishan Sta. (Exit 2)_1,Shilin Dist,Fuhua Rd. & Ln. 162， Fuhua Rd. Intersection (Southeast)
500104109,YouBike2.0_銘傳大學(中山北路五段280巷口),士林區,23,中山北路五段280巷口,25.08762,121.52711,YouBike2.0_MCU (Ln. 280， Sec. 5， Zhongshan N. Rd.),Shilin Dist,Ln. 280， Sec. 5， Zhongshan N. Rd.
500104110,YouBike2.0_海光公園南側,士林區,12,葫蘆街79號對側公園,25.08036,121.5084,YouBike2.0_Haiguang Park (South),Shilin Dist,No. 79， Hulu St. (Opposite)
500104111,YouBike2.0_士商路40巷口,士林區,15,士商路40巷2號旁,25.09013,121.52054,YouBike2.0_Ln. 40， Shishang Rd.,Shilin Dist,No. 2， Ln. 40， Shishang Rd.
500104112,YouBike2.0_劍潭郵局,士林區,32,基河路/承德路四段77巷口(捷運橋下),25.08182,121.52431,YouBike2.0_Shihlin Jiantan Post Office,Shilin Dist,Jihe Rd. & Ln. 77， Sec. 4， Chengde Rd. Intersection (Under Bridge)
500104113,YouBike2.0_士東路91巷口,士林區,16,士東路91巷3號旁,25.11247,121.52914,YouBike2.0_Ln. 91， Shidong Rd.,Shilin Dist,No. 3， Ln. 91， Shidong Rd.
500104114,YouBike2.0_美崙公園,士林區,13,美崙街118號斜對面人行道,25.09677,121.51931,YouBike2.0_Meilun Park,Shilin Dist,No. 118， Meilun St. (Opposite)
500104115,YouBike2.0_臺北市立大學(忠誠路二段207巷),士林區,17,忠誠路二段207巷/士東路299巷口,25.11642,121.53743,YouBike2.0_University of Taipei (Ln. 270， Sec. 2， Zhongcheng Rd.),Shilin Dist,Ln. 270， Sec. 2， Zhongcheng Rd. & Ln. 299， Shidong Rd. Intersection
500104116,YouBike2.0_天母東路8巷/忠誠路二段154巷口,士林區,14,天母東路8巷57號對側,25.11579,121.53113,YouBike2.0_Ln. 8， Tianmu E. Rd. & Ln. 154， Sec. 2， Zhongcheng Rd. Intersection,Shilin Dist,No. 57， Ln. 8， Tianmu E. Rd. (Opposite)
500104117,YouBike2.0_美崙公園(東北側),士林區,15,文林路587巷115號對側,25.09886,121.51835,YouBike2.0_Meilun Park (Northeast),Shilin Dist,No. 115， Ln. 587， Wenlin Rd. (Opposite)
500104118,YouBike2.0_福安河濱公園,士林區,14,延平北路七段145巷45號斜對面,25.09646,121.49358,YouBike2.0_Fuan Riverside Park,Shilin Dist,No. 45， Ln. 145， Sec. 7， Yanping N. Rd. (Opposite)
500104119,YouBike2.0_忠誠忠義街口(北側),士林區,13,忠誠路一段125號前,25.10566,121.52922,YouBike2.0_Zhongcheng Rd. & Zhongyi St. Intersection (North),Shilin Dist,No. 125， Sec. 1， Zhongcheng Rd.
500104120,YouBike2.0_忠誠忠義街口(南側),士林區,14,忠誠路一段109號前,25.10519,121.52869,YouBike2.0_Zhongcheng Rd. & Zhongyi St. Intersection (South),Shilin Dist,No. 109， Sec. 1， Zhongcheng Rd.
500104121,YouBike2.0_士林國小,士林區,15,福德路與福德路48巷口,25.09204,121.52472,YouBike2.0_Shilin Elementary School,Shilin Dist,Fude Rd. & Ln. 48， Fude Rd. Intersection
500104122,YouBike2.0_雙溪濕地公園,士林區,15,承德路五段與承德路五段150巷口西南側,25.09762,121.51321,YouBike2.0_ShuangXi Park,Shilin Dist,Sec. 5， Chengde Rd. & No. 150， Sec. 5， Chengde Rd. Intersection (Southwest)
500104123,YouBike2.0_劍潭海外青年活動中心(志清大樓),士林區,30,中山北路四段16號(志清大樓旁),25.07793,121.52357,YouBike2.0_Chientan Youth Activity Center (Chin Ching Building),Shilin Dist,No. 16， Sec. 4， ZhongShan N. Rd. (Chin Ching Building)
500104124,YouBike2.0_天和一號公園,士林區,15,天母東路69巷/天母東路,25.11836,121.53466,YouBike2.0_No.1 TianHe Park,Shilin Dist,Ln. 69， TianMu E. Rd. & TianMu E. Rd. Intersection
500104125,YouBike2.0_忠誠路二段178巷口,士林區,15,忠誠路二段178巷13號對面,25.11633,121.53295,YouBike2.0_Ln. 178， Sec. 2， ZhongCheng Rd.,Shilin Dist,No. 13， Ln. 178， Sec. 2， ZhongCheng Rd. (Opposite)
500104126,YouBike2.0_克強磺溪街口,士林區,14,克強路與磺溪街口西南側,25.10893,121.52319,YouBike2.0_KeGiang Rd. & HuangXi St. Intersection,Shilin Dist,KeQiang Rd. & HuangXi St. Intersection (Southwest)
500104128,YouBike2.0_蘭雅公園(西側),士林區,15,德行東路109巷75號東側,25.10985,121.52859,YouBike2.0_LanYa Park  (West),Shilin Dist,No. 75， Ln. 109， DeXing E. Rd. (East)
500104129,YouBike2.0_福林路100巷77弄口,士林區,18,福林路100巷/福林路100巷77弄,25.09441,121.53285,YouBike2.0_Aly. 77， Ln. 100， FuLin Rd.,Shilin Dist,Ln. 100， FuLin Rd. & Aly. 77， Ln. 100， FuLin Rd. Intersection
500104130,YouBike2.0_福林路100巷11弄口,士林區,15,福林路100巷11弄/福林路100巷77弄,25.09601,121.53262,YouBike2.0_Aly. 11， Ln. 100， FuLin Rd.,Shilin Dist,Aly. 11， Ln. 100， FuLin Rd. & Aly. 77， Ln. 100， FuLin Rd. Intersection
500104131,YouBike2.0_重慶北路四段190巷口(通河西街側),士林區,15,通河西街一段92號對側,25.0848,121.51253,YouBike2.0_Ln. 190， Sec. 4， ChongQing N. Rd. (TongHe W. St.),Shilin Dist,No. 92， Sec. 1， TongHe W. St.
500104132,YouBike2.0_承德區民活動中心,士林區,25,承德路四段5-1號(前),25.07892,121.52157,YouBike2.0_ChengDe Community Activity Center,Shilin Dist,No. 5-1， Sec. 4， ChengDe Rd.
500104133,YouBike2.0_福林路255巷口,士林區,18,福林路255巷口,25.09854,121.53528,YouBike2.0_Ln. 255， FuLin Rd.,Shilin Dist,福林路259號(前)
500104134,YouBike2.0_中山北路五段378巷口,士林區,27,中山北路五段380號(前),25.09064,121.52765,YouBike2.0_Ln. 378， Sec. 5， ZhongShan N. Rd.,Shilin Dist,No. 380， Sec. 5， ZhongShan N. Rd.
500104135,YouBike2.0_中山北路六段405巷,士林區,21,中山北路六段405巷60-3號(前),25.11576,121.52693,YouBike2.0_Ln. 405， Sec. 6， ZhongShan N. Rd.,Shilin Dist,No. 60-3， Ln. 405， Sec. 6， ZhongShan N. Rd.
500104136,YouBike2.0_圓山育樂中心,士林區,22,中山北路五段6號(前),25.08248,121.52548,YouBike2.0_YSSC YuanShan Sport Club,Shilin Dist,No. 6， Sec. 5， ZhongShan N. Rd.
500104137,YouBike2.0_至善公園,士林區,25,至善路/福林路254巷(北側),25.09862,121.53749,YouBike2.0_ZhiShan Park,Shilin Dist,Zhishan Rd. & Ln. 254， FuLin Rd. Intersection (North)
500105001,YouBike2.0_台北花木批發市場,文山區,40,萬盛街/興隆路一段(西北側),25.00402,121.54074,YouBike2.0_Taipei Pot Plant Market,Wenshan Dist,Wancheng St. & Sec. 1， Xinrong Rd. (Northwest)
500105002,YouBike2.0_捷運萬隆站(4號出口),文山區,22,羅斯福路5段210號(前),25.0027,121.53861,YouBike2.0_MRT Wanlong Sta. (Exit 4),Wenshan Dist,No. 210， Sec. 5， Roosevelt Rd.
500105003,YouBike2.0_捷運萬隆站(1號出口),文山區,34,羅斯福路五段250號(前),25.00115,121.53916,YouBike2.0_MRT Wanlong Sta. (Exit 1),Wenshan Dist,No. 250， Sec. 5， Roosevelt Rd.
500105004,YouBike2.0_萬和二號公園,文山區,35,萬隆街255號(對面),25.00154,121.5364,YouBike2.0_Wanhe 2nd Park,Wenshan Dist,No. 255， Wanlong St.
500105005,YouBike2.0_捷運萬隆站(2號出口),文山區,12,興隆路一段70巷/羅斯福路5段211巷26弄口,25.00144,121.53983,YouBike2.0_MRT Wanlong Sta. (Exit 2),Wenshan Dist,Ln. 70， Sec. 1， Xinrong Rd. & Aly. 26， Ln. 211， Sec. 5， Roosevelt Rd.
500105006,YouBike2.0_景仁公園,文山區,16,羅斯福路六段142巷1號(旁),24.99621,121.54043,YouBike2.0_Jingren Park,Wenshan Dist,No. 1， Ln. 142， Sec. 6， Roosevelt Rd.
500105007,YouBike2.0_捷運景美站(2號出口),文山區,63,景文街1號(對面),24.99366,121.54124,YouBike2.0_MRT Jingmei Sta. (Exit 2),Wenshan Dist,No. 1， Jingwen St. (Opposite)
500105008,YouBike2.0_羅斯福景隆街口,文山區,50,羅斯福路六段/景隆街口(東南側),24.99898,121.5403,YouBike2.0_Roosevelt Jinglong St. Intersection,Wenshan Dist,Sec. 6， Roosevelt Rd. & Jinglong St. Intersection (Southeast)
500105009,YouBike2.0_景福街/羅斯福路6段142巷口,文山區,28,景福街/羅斯福路6段142巷口,24.998336212959,121.53686287812,YouBike2.0_Jingfu St & Ln. 142， Sec. 6， Roosevelt Rd Intersection,Wenshan Dist,Jingfu St & Ln. 142， Sec. 6， Roosevelt Rd Intersection.
500105010,YouBike2.0_興旺公園,文山區,30,福興路106巷28弄96號(對面),25.00587,121.55012,YouBike2.0_Xingwang Park,Wenshan Dist,No. 96， Aly. 28， Ln. 106， Fuxing Rd. (Opposite)
500105011,YouBike2.0_興福國中,文山區,25,福興路95巷/福興路63巷4弄口,25.00465,121.54916,YouBike2.0_Xing Fu Junior High School,Wenshan Dist,Ln. 95， Fuxing Rd & Aly. 28， Ln. 63， Fuxing Rd. (Opposite)
500105012,YouBike2.0_興隆路2段203巷,文山區,32,興隆路2段203巷108號(對面),25.00346,121.54709,YouBike2.0_Ln. 203， Sec. 2， Xinglong Rd,Wenshan Dist,No. 108， Ln. 203， Sec. 2， Xinglong Rd (Opposite)
500105013,YouBike2.0_景美運動公園,文山區,26,景豐街79號(旁公園),25.00219,121.54454,YouBike2.0_Jingmei Sports Park,Wenshan Dist,No. 79， Jingfeng St. (Side)
500105014,YouBike2.0_景美醫院,文山區,18,羅斯福路六段280號(前),24.99136,121.54008,YouBike2.0_Jing Mei Hospital,Wenshan Dist,No. 280， Sec. 6， Roosevelt Rd.
500105015,YouBike2.0_師範大學公館校區,文山區,14,汀州路四段77號(旁),25.00792,121.53731,YouBike2.0_National Taiwan Normal University Gongguan Campus,Wenshan Dist,No. 77， Sec. 4， Tingzhou Rd.
500105016,YouBike2.0_景華街128巷口,文山區,29,景華街124號(旁汽車格),24.99543,121.54725,YouBike2.0_Ln 128， Jinghua St.,Wenshan Dist,No. 124， Jinghua St.
500105017,YouBike2.0_仙跡岩登山口(景興路),文山區,22,景興街239號(前),24.99118,121.5436,YouBike2.0_Xianjiyan Trailhead (Jingxing Rd.),Wenshan Dist,No. 239， Jingxing Rd.
500105018,YouBike2.0_國立政治大學,文山區,62,指南路二段153號(對面),24.98737,121.57726,YouBike2.0_National Chengchi University,Wenshan Dist,No. 153， Sec. 2， Zhinan Rd. (Opposite)
500105019,YouBike2.0_捷運動物園站,文山區,57,新光路二段30號(對面),24.99873,121.57985,YouBike2.0_MRT Taipei Zoo Sta.,Wenshan Dist,No. 30， Sec. 2， Xinguang Rd. (Opposite)
500105020,YouBike2.0_捷運木柵站,文山區,31,木柵路四段82巷18號前(捷運橋樑下),24.99798,121.57455,YouBike2.0_MRT Muzha Sta.,Wenshan Dist,No. 18， Ln. 82， Sec. 4， Muzha Rd. (Under The MRT Bridge)
500105021,YouBike2.0_捷運萬芳社區站,文山區,48,萬芳路60號(西側廣場),24.99886,121.56769,YouBike2.0_MRT Wanfang Community Sta.,Wenshan Dist,No. 60， Wanfang Rd. (West)
500105022,YouBike2.0_文山運動中心,文山區,36,興隆路三段/興隆路三段192巷8弄,24.99676,121.5596,YouBike2.0_Wen Shan Sports Center,Wenshan Dist,Sec. 3， Xinglong Rd./Aly. 8， Ln. 192， Sec. 3， Xinglong Rd.
500105023,YouBike2.0_捷運辛亥站,文山區,42,辛亥路四段114號(旁人行道),25.00467,121.55684,YouBike2.0_MRT Xinhai Sta.,Wenshan Dist,No. 114， Sec. 4， Xinhai Rd.
500105024,YouBike2.0_興豐公園,文山區,25,興隆路二段123巷/興隆路二段(西北側),24.99982,121.54761,YouBike2.0_Xingfeng Park,Wenshan Dist,Ln. 123， Sec. 2， Xinglong Rd./Sec. 2， Xinglong Rd. (Northwest)
500105025,YouBike2.0_木柵光輝路口,文山區,33,木柵路一段290號(旁),24.98816,121.55528,YouBike2.0_Muzha Rd. & Guanghui Rd. Intersection,Wenshan Dist,No. 290， Sec. 1， Muzha Rd.
500105026,YouBike2.0_考試院,文山區,26,試院路(雙號)/木柵路一段(東北側),24.98747,121.54984,YouBike2.0_Examination Yuan,Wenshan Dist,Shiyuan Rd.(Double number)/ Sec. 1， Muzha Rd. (Northeast)
500105027,YouBike2.0_和興路26巷口,文山區,39,和興路44巷 / 和興路26巷口,24.98573,121.54532,YouBike2.0_No. 26， Hexing St. Intersection,Wenshan Dist,No. 44， Hexing St./No. 26， Hexing St. Intersection
500105028,YouBike2.0_世新大學,文山區,30,木柵路一段17巷1號(西側),24.98859,121.54336,YouBike2.0_Shih Hsin University,Wenshan Dist,No. 1， Ln. 17， Sec. 1， Muzha Rd. (West)
500105029,YouBike2.0_一壽橋,文山區,28,樟新街64號前方,24.97837,121.55548,YouBike2.0_Yishou Bridge,Wenshan Dist,No. 64， Zhangxin St.
500105030,YouBike2.0_臺北市立景美女中,文山區,25,木新路三段/一壽街(西北側),24.98058,121.55624,YouBike2.0_Jingmei Girls High School,Wenshan Dist,Sec. 3， Muxin Rd./Yishou St. (Northwest)
500105031,YouBike2.0_永安藝文館_表演36房,文山區,29,木新路二段156號前人行道(永安市場),24.98414,121.56907,YouBike2.0_Performing Arts School 36,Wenshan Dist,No. 156， Sec. 2， Muxin Rd. (Yongan Market)
500105032,YouBike2.0_忠順區民活動中心,文山區,31,忠順街二段22號前方人行道(忠順區民活動中心),24.98471,121.56332,YouBike2.0_Zhongshun Community Center,Wenshan Dist,No. 22， Sec. 2， Zhongshun St.
500105033,YouBike2.0_景文中學,文山區,36,保儀路/木柵路三段102巷口(西南側),24.98574,121.56745,YouBike2.0_Jingwen Bilingual High School,Wenshan Dist,Baoyi Rd./Ln. 102， Sec. 3， Muxin Rd. Intersection (Southwest)
500105034,YouBike2.0_老泉街籃球場,文山區,14,老泉街26巷老泉街口(籃球場前),24.97619,121.5583,YouBike2.0_Laoquan St. Basketball Court,Wenshan Dist,Ln. 26， Laoquan St. Intersection
500105035,YouBike2.0_文山行政中心,文山區,27,木柵路三段220號(前),24.98959,121.56959,YouBike2.0_Wenshan District Admin. Center,Wenshan Dist,No. 220， Sec. 3， Muzha Rd.
500105036,YouBike2.0_木柵公園,文山區,38,興隆路四段50號(前),24.98718,121.56059,YouBike2.0_Muzha Park,Wenshan Dist,No. 50， Sec. 4， Xinglong Rd.
500105037,YouBike2.0_興隆公共住宅D2區,文山區,27,興隆路四段105巷49號(旁),24.98814,121.56356,YouBike2.0_Xinglong Public Housing (D2),Wenshan Dist,No. 49， Ln. 105， Sec. 4， Xinglong Rd.
500105038,YouBike2.0_木新路3段95巷口,文山區,24,木新路三段95巷30號(對面),24.98088,121.56313,YouBike2.0_Ln. 95， Sec. 3， Muxin Rd. Intersection,Wenshan Dist,No. 30， Ln. 95， Sec. 3， Muxin Rd. (Opposite)
500105039,YouBike2.0_樟腳里公園,文山區,15,木新路二段299巷15號(旁),24.98181,121.56567,YouBike2.0_Zhangjiaoli Park,Wenshan Dist,No. 15， Ln. 299， Sec. 2， Muxin Rd. (Opposite)
500105040,YouBike2.0_實踐國中,文山區,13,忠順街一段2號(旁),24.98301,121.55404,YouBike2.0_Shijian Junior High School,Wenshan Dist,No. 2， Sec. 1， Zhongshun St.
500105041,YouBike2.0_指南路3段2巷,文山區,13,指南路三段4號(旁),24.98537,121.57959,YouBike2.0_Ln. 2， Sec. 3， Zhinan Rd.,Wenshan Dist,No. 4， Sec. 3， Zhinan Rd.
500105042,YouBike2.0_萊茵公園,文山區,14,忠順街二段87巷25弄29號,24.98642,121.56514,YouBike2.0_Laiyin Park,Wenshan Dist,No. 29， Aly. 25， Ln. 87， Sec. 2， Zhongshun St.
500105043,YouBike2.0_木柵社會住宅,文山區,12,久康街24巷46號對側,24.98935,121.56651,YouBike2.0_Muzha Social Housing,Wenshan Dist,No. 46， Ln. 24， Jiukang St. (Opposite)
500105044,YouBike2.0_秀明路一段185巷口,文山區,20,秀明路一段與秀明路一段185巷口,24.99151,121.56836,YouBike2.0_Ln. 185， Sec. 1， Xiuming Rd. Intersection,Wenshan Dist,Sec. 1， Xiuming Rd. & Ln. 185， Sec. 1， Xiuming Rd. Intersection
500105045,YouBike2.0_秀明路一段129巷口,文山區,22,秀明路一段129巷與秀明路一段路口,24.99111,121.56703,YouBike2.0_Ln. 129， Sec. 1， Xiuming Rd. Intersection,Wenshan Dist,Ln. 129， Sec. 1， Xiuming Rd. & Sec. 1， Xiuming Rd. Intersection
500105046,YouBike2.0_恆光橋(老泉街),文山區,13,老泉街/恆光街口,24.97989,121.56753,YouBike2.0_Hengguang Bridge (Laoquan St.),Wenshan Dist,Laoquan St. & Hengguang St. Intersection
500105047,YouBike2.0_萬有3號公園,文山區,14,景隆街105號(對面),24.99889,121.5433,YouBike2.0_Wan You NO.3 Park,Wenshan Dist,No. 105， Jinglong St. (Opposite)
500105048,YouBike2.0_捷運萬芳醫院站(興隆路三段115巷),文山區,20,興隆路三段115巷2號,24.99939,121.55848,YouBike2.0_MRT Wanfang Hospital Sta. (Ln. 115， Sec. 3， Xinglong Rd.),Wenshan Dist,No. 2， Ln. 115， Sec. 3， Xinglong Rd.
500105049,YouBike2.0_興得閱覽室,文山區,24,興隆路三段304巷145號,24.99579,121.55498,YouBike2.0_Xingde Reading Room,Wenshan Dist,No. 145， Ln. 304， Sec. 3， Xinglong Rd.
500105050,YouBike2.0_辛亥生態公園,文山區,23,辛亥路四段199號,25.00348,121.55642,YouBike2.0_Xinhai Ecological Park,Wenshan Dist,No. 199， Sec. 4， Xinhai Rd.
500105051,YouBike2.0_博嘉運動公園,文山區,12,木柵路四段159巷16號,25.00079,121.57534,YouBike2.0_Bo Jia Sports Park,Wenshan Dist,No. 16， Ln. 159， Sec. 4， Muzha Rd.
500105053,YouBike2.0_仙岩公園,文山區,20,仙岩路16巷37號旁,24.99797,121.54982,YouBike2.0_Sian Yan Park,Wenshan Dist,No. 37， Ln. 16， Xianyan Rd.
500105054,YouBike2.0_政大一街口,文山區,14,政大一街19號對側,24.98543,121.58006,YouBike2.0_Zhengda 1st St.,Wenshan Dist,No. 19， Zhengda 1st St. (Opposite)
500105055,YouBike2.0_文山第二行政中心,文山區,38,興隆路二段160-1號前,25.00115,121.55142,YouBike2.0_Wenshan 2nd District Office,Wenshan Dist,No. 160-1， Sec. 2， Xinglong Rd.
500105056,YouBike2.0_移民署訓練中心,文山區,13,興隆路三段306號,24.99271,121.55865,YouBike2.0_National Immigration Agency Training Center,Wenshan Dist,No. 306， Sec. 3， Xinglong Rd.
500105057,YouBike2.0_海巡署(南側),文山區,10,興隆路三段211號對側(公車亭後),24.99472,121.55949,YouBike2.0_Coast Guard Administration (South),Wenshan Dist,No. 211， Sec. 3， Xinglong Rd. (Opposite)
500105058,YouBike2.0_明道國小東南側,文山區,28,興隆路四段109巷116號對側,24.98695,121.56456,YouBike2.0_Ming Dao Elementary School (Southeast),Wenshan Dist,No. 116， Ln. 109， Sec. 4， Muzha Rd.
500105059,YouBike2.0_木南公園,文山區,17,木新路二段永安街22巷口,24.98662,121.57071,YouBike2.0_Mu Nan Park,Wenshan Dist,Sec. 2， Muxin Rd. & Ln. 22， Yong'an St. Intersection
500105060,YouBike2.0_實踐國中(木新路三段310巷口),文山區,17,忠順街一段木新路三段310巷口,24.98339,121.55645,YouBike2.0_Shijian Junior High School (Ln. 310， Sec. 3， Muxin Rd.),Wenshan Dist,Sec. 1， Zhongshun St. & Ln. 310， Sec. 3， Muxin Rd. Intersection
500105061,YouBike2.0_師範大學公館校區_1,文山區,34,師大公館校區校門口(汀州路側),25.00753,121.53719,YouBike2.0_National Taiwan Normal University Gongguan Campus_1,Wenshan Dist,National Taiwan Normal University Gongguan Campus (Tingzhou Rd.)
500105062,YouBike2.0_捷運動物園站(2號出口),文山區,39,新光路二段28號前,24.99766,121.57875,YouBike2.0_MRT Taipei Zoo Sta. (Exit 2),Wenshan Dist,No. 28， Sec. 2， Xinguang Rd.
500105063,YouBike2.0_政大水岸電梯,文山區,10,政治大學水岸電梯旁,24.982,121.5717,YouBike2.0_Waterfront Elevator,Wenshan Dist,NCCU College of Waterfront Elevator
500105064,YouBike2.0_敦南山林,文山區,14,木柵路四段159巷16弄(社區出入口對側),25.00264,121.5768,YouBike2.0_Dunnan Forest,Wenshan Dist,Aly. 16， Ln. 159， Sec. 4， Muzha Rd.
500105066,YouBike2.0_景美污水抽水站,文山區,15,汀州路四段10號北側人行道,25.01076,121.53637,YouBike2.0_Jingmei Pumping Station,Wenshan Dist,No. 10， Sec. 4， Tingzhou Rd. (North)
500105067,YouBike2.0_萬和三號公園(北側),文山區,13,溪洲街107巷(公園北側),25.00345,121.53636,YouBike2.0_Wan He NO.3 Park,Wenshan Dist,Ln. 107， Xizhou St.
500105068,YouBike2.0_景興國中,文山區,10,三福街4巷與景興路46巷口,24.99609,121.54284,YouBike2.0_Jing Xing Junior High School,Wenshan Dist,Ln. 4， Sanfu St. & Ln. 46， Jingxing Rd. Intersection
500105069,YouBike2.0_景仁公園_1,文山區,30,景仁街 / 羅斯福路六段142巷口(北側),24.9966,121.5403,YouBike2.0_Jingren Park_1,Wenshan Dist,Jingren St. & Ln. 142， Sec. 6， Roosevelt Rd. Intersection (North)
500105070,YouBike2.0_師大公館校區學二舍,文山區,40,臺灣師範大學學二舍西側人行道,25.00825,121.53419,YouBike2.0_NTNU Gongguan Campus (Student Dorm 2),Wenshan Dist,NTNU Gongguan Campus (Student Dorm 2)
500105071,YouBike2.0_景行公園,文山區,15,景中街與景中街30巷口,24.99279,121.54255,YouBike2.0_Jing Sing Park,Wenshan Dist,Jingzhong St. & Ln. 30， Jingzhong St. Intersection
500105072,YouBike2.0_萬興國小,文山區,25,秀明路二段114號公車亭旁,24.98939,121.57682,YouBike2.0_WangXin Elementary School,Wenshan Dist,No. 114， Sec. 2， Xiuming Rd.
500105073,YouBike2.0_辛亥路四段77巷口,文山區,14,辛亥路四段77巷口,25.00743,121.55877,YouBike2.0_Ln. 77， Sec. 4， Xinhai Rd.,Wenshan Dist,Ln. 77， Sec. 4， Xinhai Rd.
500105074,YouBike2.0_景興路42巷口,文山區,12,景興路42巷與景興路口西南側,24.99696,121.54454,YouBike2.0_Ln. 42， Jingxing Rd.,Wenshan Dist,Ln. 42， Jingxing Rd. & Jingxing Rd. Intersection (Southwest)
500105075,YouBike2.0_木柵路三段48巷,文山區,15,木柵路三段48巷1弄口,24.98768,121.56565,YouBike2.0_Ln. 48， Sec. 3， Muzha Rd.,Wenshan Dist,Aly. 1， Ln. 48， Sec. 3， Muzha Rd.
500105076,YouBike2.0_木柵路二段109巷,文山區,15,木柵路二段109巷14號旁,24.98944,121.56195,YouBike2.0_Ln. 109， Sec. 2， Muzha Rd.,Wenshan Dist,No. 14， Ln. 109， Sec. 2， Muzha Rd.
500105077,YouBike2.0_試院公園,文山區,15,木柵路一段59巷29號對側,24.98808,121.54723,YouBike2.0_Shih Yuan Park,Wenshan Dist,No. 29， Ln. 59， Sec. 1， Muzha Rd. (Opposite)
500105079,YouBike2.0_樟樹公園,文山區,15,忠順街一段26巷30弄1號對側,24.9825,121.55949,YouBike2.0_Jhang Shu Park,Wenshan Dist,No. 1， Aly. 30， Ln. 26， Sec. 1， Zhongshun St. (Opposite)
500105080,YouBike2.0_萬美萬安街口,文山區,25,萬美街一段/萬安街口,25.00223,121.57039,YouBike2.0_Wanmei St. & Wan'an St. Intersection,Wenshan Dist,Sec. 1， Wanmei St. & Wan'an St. Intersection
500105081,YouBike2.0_興隆路二段203巷(敦南),文山區,27,興隆路二段203巷16號,25.00198,121.54856,YouBike2.0_Ln. 203， Sec. 2， Xinglong Rd. (Dunnan),Wenshan Dist,No. 16， Ln. 203， Sec. 2， Xinglong Rd.
500105082,YouBike2.0_新光秀明路口,文山區,15,新光路一段145號前,24.99197,121.57371,YouBike2.0_Xinguang Rd. & Xiuming Rd. Intersection,Wenshan Dist,No. 145， Sec. 1， Xinguang Rd.
500105083,YouBike2.0_光輝路134巷口,文山區,15,光輝路140號對側,24.98532,121.55831,YouBike2.0_Ln. 134， Guanghui Rd.,Wenshan Dist,No. 140， Guanghui Rd. (Opposite)
500105084,YouBike2.0_光輝公園,文山區,27,光輝路7號後側,24.98655,121.5552,YouBike2.0_Guang Huei Park,Wenshan Dist,No. 7， Guanghui Rd. (Opposite)
500105085,YouBike2.0_木新公園,文山區,12,木新路三段278巷11號斜對面,24.98217,121.55782,YouBike2.0_Mu Sin Park,Wenshan Dist,No. 11， Ln. 278， Sec. 3， Muxin Rd. (Opposite)
500105086,YouBike2.0_興隆路二段275巷1弄口,文山區,16,興隆路二段275巷1弄2號前,25.00268,121.55277,YouBike2.0_Aly. 1， Ln. 275， Sec. 2， Xinglong Rd.,Wenshan Dist,No. 2， Aly. 1， Ln. 275， Sec. 2， Xinglong Rd.
500105087,YouBike2.0_中國科技大學,文山區,21,興隆路三段56號,24.99925,121.55553,YouBike2.0_China University of Technology,Wenshan Dist,No. 56， Sec. 3， Xinglong Rd.
500105088,YouBike2.0_樟新街8巷,文山區,17,樟新街8巷9號對側,24.97932,121.55406,YouBike2.0_Ln. 8， Zhangxin St.,Wenshan Dist,No. 9， Ln. 8， Zhangxin St. (Opposite)
500105089,YouBike2.0_仙岩路22巷口,文山區,28,仙岩路26號旁,24.99892,121.54887,YouBike2.0_Ln. 22， Xianyan Rd.,Wenshan Dist,No. 26， Xianyan Rd.
500105090,YouBike2.0_木柵萬芳路口,文山區,29,木柵路四段75號對側自行車道旁,24.99509,121.57199,YouBike2.0_Muzha &Wanfang Rd. Intersection,Wenshan Dist,No.75，Sec.4，Muzha Rd.
500105091,YouBike2.0_福興路78巷,文山區,14,福興路78巷/福興路78巷10弄,25.00437,121.55048,YouBike2.0_Ln. 78， Fuxing Rd.,Wenshan Dist,Ln. 78， Fuxing Rd. & Aly. 10， Ln. 78， Fuxing Rd.Intersection
500105092,YouBike2.0_辛亥木柵路口,文山區,20,辛亥路六段100巷對側,24.98839,121.55238,YouBike2.0_XinHai Rd. & MuZha Rd.  Intersection,Wenshan Dist,Ln. 100， Sec. 6， Xinhai Rd.
500105093,YouBike2.0_興泰公園,文山區,12,辛亥路四段166巷24號對側,25.00492,121.55582,YouBike2.0_Sing Tai Park,Wenshan Dist,No. 24， Ln. 166， Sec. 4， XinHai Rd. (Opposite)
500105094,YouBike2.0_興岩社會福利綜合大樓,文山區,18,興隆路二段88號前,25.00061,121.54941,YouBike2.0_Taipei City Xing Yan Social Welfare Services Building,Wenshan Dist,No. 88， Sec. 2， XingLong Rd.
500105095,YouBike2.0_興隆路二段22巷9弄口,文山區,13,興隆路二段22巷9弄與景興街23巷6弄口,24.99746,121.54543,YouBike2.0_Aly. 9， Ln. 22， Sec. 2， XingLong Rd.,Wenshan Dist,Aly. 9， Ln. 22， Sec. 2， XingLong Rd. & Aly. 6， Ln. 23， JingXing Rd. Intersection
500105096,YouBike2.0_木新路三段155巷口,文山區,15,木新路三段156號(前),24.98184,121.56125,YouBike2.0_Ln. 155， Sec. 3， MuXin Rd.,Wenshan Dist,No. 156， Sec. 3， MuXin Rd.
500105097,YouBike2.0_景興路102巷口,文山區,14,景華街52巷/景興路102巷,24.99438,121.54376,YouBike2.0_Ln. 102， JingXing Rd.,Wenshan Dist,Ln. 52， JingHua St. & Ln. 102， JingXing Rd. Intersection
500105098,YouBike2.0_景福街223巷,文山區,18,溪口街85巷19弄14號,24.99442,121.53844,YouBike2.0_Ln. 223， JingFu St.,Wenshan Dist,No. 14， Aly. 19， Ln. 85， XiKou St.
500105100,YouBike2.0_達賢圖書館,文山區,27,政大達賢圖書館西側人行道,24.9884,121.57786,YouBike2.0_Dah Hsian Seetoo Library,Wenshan Dist,Dah Hsian Seetoo Library (West)
500105101,YouBike2.0_捷運木柵站(西側),文山區,26,捷運木柵站出入口(西側),24.9983,121.57279,YouBike2.0_MRT Muzha Sta. (West),Wenshan Dist,MRT Muzha Sta. (West)
500105102,YouBike2.0_世新大學(試院路),文山區,16,試院路102-1號對側,24.98981,121.54783,YouBike2.0_Shih Hsin University (ShiYuan Rd.),Wenshan Dist,No. 102-1， ShiYuan Rd. (Opposite)
500105103,YouBike2.0_興隆社會住宅D1區,文山區,31,木柵路二段2巷52號旁,24.98783,121.55831,YouBike2.0_XingLong D1 Social Housing,Wenshan Dist,No. 52， Ln. 2， Sec. 2， Muzha Rd.
500105104,YouBike2.0_名門社區,文山區,18,和平東路四段77號對側,25.00516,121.56757,YouBike2.0_Mingmen Community,Wenshan Dist,No. 77， Sec. 4， HePing E. Rd. (Opposite)
500105106,YouBike2.0_政大國際會館,文山區,20,秀明路二段112巷19號,24.98994,121.57513,YouBike2.0_NCCU-iHouse,Wenshan Dist,No. 19， Ln. 112， Sec. 2， Xiuming Rd.
500105107,YouBike2.0_萬芳出租國宅,文山區,36,萬寧街36巷口,25.00335,121.5655,YouBike2.0_Wanfang Public Housing,Wenshan Dist,Ln. 36， WanNing St.
500105108,YouBike2.0_景美國小,文山區,25,景文街108號旁,24.9893,121.53976,YouBike2.0_Jingmei Elementary School,Wenshan Dist,No. 108， JingWen St.
500105109,YouBike2.0_景文街142巷口,文山區,16,景文街與景文街142巷口(景美橋旁),24.98826,121.54065,YouBike2.0_Ln. 142， JingWen St.,Wenshan Dist,JingWen St. & Ln. 142， JingWen St. Intersection (Jingmei Bridge)
500105110,YouBike2.0_保儀路142巷,文山區,15,保儀路142巷2號前,24.98327,121.56515,YouBike2.0_Ln. 142， BaoYi Rd.,Wenshan Dist,No. 2， Ln. 142， BaoYi Rd.
500105111,YouBike2.0_和興水岸社會住宅,文山區,29,和興路88-1號(對面),24.98505,121.54953,YouBike2.0_HeXing Social Housing,Wenshan Dist,No. 88-1， HeXing Rd.
500105112,YouBike2.0_萬芳路107巷口,文山區,20,萬芳路111-113號(旁),24.99715,121.56179,YouBike2.0_Ln. 107， WanFang Rd.,Wenshan Dist,No. 111， WanFang Rd.
500105114,YouBike2.0_明道國小(明道國宅),文山區,26,興隆路四段109巷40號北側,24.98686,121.56301,YouBike2.0_Ming Dao Elementary School (Ming Dao Public Housing),Wenshan Dist,No. 40， Ln. 109， Sec. 4， XingLong Rd. (North)
500106001,YouBike2.0_臺北自來水事業處,中正區,20,思源街1號東側,25.013741,121.53068,YouBike2.0_Taipei Water Department,Zhongzheng Dist,No.1， Siyuan St. (East)
500106002,YouBike2.0_汀州思源街口東南側,中正區,20,汀州路三段思源街口東南側,25.014697,121.531908,YouBike2.0_Tingzhou Rd. / Siyuan St. intersection (Southeast),Zhongzheng Dist,Sec. 3， Tingzhou Rd./ Siyuan St. intersection (Southeast)
500106003,YouBike2.0_捷運公館站(1號出口),中正區,12,羅斯福路四段68號,25.014529,121.534374,YouBike2.0_MRT Gongguan Sta. (Exit 1),Zhongzheng Dist,No.68， Sec. 4， Roosevelt Rd.
500106004,YouBike2.0_捷運公館站(4號出口),中正區,12,羅斯福路四段48號,25.015069,121.533828,YouBike2.0_MRT Gongguan Sta. (Exit 4),Zhongzheng Dist,No.48， Sec. 4， Roosevelt Rd.
500106005,YouBike2.0_捷運古亭站(9號出口),中正區,24,羅斯福路二段100號(前方),25.02694,121.52224,YouBike2.0_MRT Guting Sta. (Exit 9),Zhongzheng Dist,No. 100， Sec. 2， Roosevelt Rd
500106006,YouBike2.0_捷運古亭站(2號出口),中正區,55,羅斯福路二段168號前,25.0255,121.52346,YouBike2.0_MRT Guting Sta. (Exit 2),Zhongzheng Dist,No. 168， Sec. 2， Roosevelt Rd
500106007,YouBike2.0_捷運臺電大樓站(1號出口),中正區,34,辛亥路一段/羅斯福路三段南側,25.0197,121.529,YouBike2.0_MRT Taipower Building Sta. (Exit 1),Zhongzheng Dist,Sec. 1， Xinhai Rd & Sec. 3， Roosevelt Rd (South)
500106008,YouBike2.0_客家文化主題公園,中正區,31,師大路/金門街11巷口對側人行道,25.02069,121.52456,YouBike2.0_Hakka Cultural Park,Zhongzheng Dist,Shida Rd & Ln. 11， Jinmen St (Opposite)
500106009,YouBike2.0_河堤國小,中正區,39,汀洲路二段182巷內186號旁,25.02277,121.52289,YouBike2.0_Taipei Municipal Heti Elementary School,Zhongzheng Dist,No. 186， Ln. 182， Sec. 2， Tingzhou Rd
500106010,YouBike2.0_紀州庵,中正區,45,水源路/同安街口(東側),25.02092,121.52049,YouBike2.0_Jizhouan Heritage Building,Zhongzheng Dist,Shuiyuan Rd & Tong'an St Intersection (East)
500106011,YouBike2.0_捷運臺電大樓站(5號出口),中正區,21,羅斯福路三段126號前,25.02075,121.52771,YouBike2.0_MRT Taipower Building Sta. (Exit 5),Zhongzheng Dist,No. 126， Sec. 3， Roosevelt Rd
500106012,YouBike2.0_捷運臺電大樓站(4號出口),中正區,13,師大路/羅斯福路三段西側,25.02102,121.52751,YouBike2.0_MRT Taipower Building Sta. (Exit 4),Zhongzheng Dist,Shida Rd & Sec. 3， Roosevelt Rd (West)
500106013,YouBike2.0_羅斯福三段金門街口,中正區,15,羅斯福路三段2號前,25.02345,121.52498,YouBike2.0_Sec. 3， Roosevelt Rd & Jinmen St Intersection,Zhongzheng Dist,No. 2， Sec. 3， Roosevelt Rd Intersection
500106014,YouBike2.0_牯嶺公園,中正區,58,廈門街113巷/牯嶺街口(西側),25.02338,121.51889,YouBike2.0_Guling Park,Zhongzheng Dist,Ln. 113， Xiamen St & Guling St. Intersection (West)
500106015,YouBike2.0_捷運古亭站(8號出口),中正區,15,和平西路一段13-1號前方,25.02701,121.52164,YouBike2.0_MRT Guting Sta. (Exit 8),Zhongzheng Dist,No. 13-1， Sec. 1， Heping W. Rd.
500106016,YouBike2.0_捷運古亭站(7號出口),中正區,12,羅斯福路二段44號前方,25.02805,121.52155,YouBike2.0_MRT Guting Sta. (Exit 7),Zhongzheng Dist,No. 44， Sec. 2， Roosevelt Rd.
500106017,YouBike2.0_南昌公園,中正區,55,和平西路一段與南昌路二段口西北側,25.02698,121.52081,YouBike2.0_Nanchang Park,Zhongzheng Dist,Sec. 1， Heping W. Rd. & Sec. 2， Nanchang Rd. Intersection (Northwest)
500106018,YouBike2.0_和平重慶路口,中正區,69,和平西路一段/福州街口東側,25.02723,121.51659,YouBike2.0_Heping & Chongqing Rd. Intersection,Zhongzheng Dist,Sec. 1， Heping W. Rd. & Fuzhou St. Intersection (East)
500106019,YouBike2.0_孫立人將軍官邸,中正區,23,南昌路一段136號前,25.02933,121.51854,YouBike2.0_Gen.Sun Li-Jen Residence,Zhongzheng Dist,No. 136， Nanchang Rd.
500106020,YouBike2.0_羅斯福路二段6巷口,中正區,22,羅斯福路二段/羅斯福路二段6巷口,25.02923,121.52058,YouBike2.0_Ln.6， Sec.2， Roosevelt Rd.,Zhongzheng Dist,Ln. 6， Sec. 2， Roosevelt Rd. Intersection
500106021,YouBike2.0_金華杭州南路口,中正區,35,金華街口/杭州南路二段西北側,25.031,121.52211,YouBike2.0_Jinhua & Hangzhou S. Rd. Intersection,Zhongzheng Dist,Jinhua St. & Sec. 2， Hangzhou S. Rd. Intersection (Northwest))
500106022,YouBike2.0_捷運中正紀念堂站(3號出口),中正區,36,金華街17號前方,25.03239,121.51866,YouBike2.0_MRT C.K.S. Memorial Hall Sta. (Exit 3),Zhongzheng Dist,No. 17， Jinhua St.
500106023,YouBike2.0_捷運中正紀念堂站(4號出口),中正區,21,羅斯福路一段5號前方,25.03376,121.51772,YouBike2.0_MRT C.K.S. Memorial Hall Sta. (Exit 4),Zhongzheng Dist,No. 5， Sec. 1， Roosevelt Rd.
500106025,YouBike2.0_螢橋國小,中正區,41,泉州街32號對面人行道,25.02609,121.51389,YouBike2.0_Ying-Qiao Elementary School,Zhongzheng Dist,No. 32， Quanzhou St. (Opposite)
500106026,YouBike2.0_古亭智慧圖書館,中正區,21,中華路二段443巷45號前,25.02543,121.51052,YouBike2.0_Guting Intelligent Library,Zhongzheng Dist,No. 45， Ln. 443， Sec. 2， Zhonghua Rd
500106027,YouBike2.0_永昌公園,中正區,29,詔安街224號前,25.02643,121.50936,YouBike2.0_Yongchang Park,Zhongzheng Dist,No. 224， Zhao'an St.
500106028,YouBike2.0_中華路二段409巷口,中正區,15,中華路二段403號前,25.02598,121.50806,YouBike2.0_Ln. 409， Sec. 2， Zhonghua Rd,Zhongzheng Dist,No. 403， Sec. 2， Zhonghua Rd.
500106029,YouBike2.0_南機場夜市(中華路二段),中正區,41,中華路二段305巷至307巷,25.02886,121.50518,YouBike2.0_Nanjichang Night Market (Sec. 2， Zhonghua Rd),Zhongzheng Dist,Ln. 305-307， Sec. 2， Zhonghua Rd
500106030,YouBike2.0_南海和平路口西南側,中正區,19,南海路與和平西路二段西南側,25.03024,121.50904,YouBike2.0_Nanhai Rd & Sec. 2， Heping W. Rd (Southwest),Zhongzheng Dist,Nanhai Rd & Sec. 2， Heping W. Rd (Southwest)
500106031,YouBike2.0_莒光和平路口,中正區,20,莒光路2號前,25.03132,121.50745,YouBike2.0_Juguang Rd & Sec. 2， Heping W. Rd Intersection,Zhongzheng Dist,No. 2， Juguang Rd.
500106037,YouBike2.0_水源路11_1號旁,中正區,31,水源路11-1號(旁),25.01602,121.52565,YouBike2.0_No. 11-1， Shuiyuan Rd,Zhongzheng Dist,No. 11-1， Shuiyuan Rd.
500106038,YouBike2.0_南門國中,中正區,40,廣州街8巷/廣州街口東南側,25.03543,121.50834,YouBike2.0_Nan Men Junior High School,Zhongzheng Dist,Ln. 8， Guangzhou St/Guangzhou St Intersection. (Southeast)
500106039,YouBike2.0_捷運小南門站(2號出口),中正區,24,愛國西路30號之2前方,25.03567,121.51006,YouBike2.0_MRT Xiaonanmen Sta. (Exit 2),Zhongzheng Dist,No. 30-2， Aiguo West Rd.
500106040,YouBike2.0_介壽公園,中正區,35,貴陽街懷寧街口(東北側),25.03907,121.5138,YouBike2.0_Jieshou Park,Zhongzheng Dist,Guiyang St & Huaining St Intersection (Northeast)
500106041,YouBike2.0_中華貴陽街口,中正區,20,貴陽街一段243之1號(前),25.03938,121.50772,YouBike2.0_Zhonghua Rd & Guiyang St Intersection,Zhongzheng Dist,No. 234-1， Sec. 1， Guiyang St.
500106042,YouBike2.0_華山文創園區,中正區,39,忠孝東路二段41號,25.04367,121.52849,YouBike2.0_Huashan 1914 Creative Park,Zhongzheng Dist,No. 41， Sec. 2， Zhongxiao E. Rd.
500106043,YouBike2.0_捷運善導寺站(1號出口),中正區,46,忠孝東路一段7號,25.04527,121.5222,YouBike2.0_MRT Shandao Temple Sta (Exit 1),Zhongzheng Dist,No. 7， Sec. 1， Zhongxiao E. Rd.
500106044,YouBike2.0_濟南紹興路口,中正區,39,濟南紹興路口東南側,25.04193,121.52459,YouBike2.0_Jinan Rd & Shaoxing S. St Intersection,Zhongzheng Dist,Jinan Rd & Shaoxing S. St Intersection. (Southeast)
500106046,YouBike2.0_林森仁愛路口,中正區,13,林森南路與仁愛路一段西北側,25.03915,121.52163,YouBike2.0_Linsen S. Rd & Sec 1， Ren'ai Rd Intersection,Zhongzheng Dist,Linsen S. Rd & Section 1， Ren'ai Rd Intersection. (Northwest)
500106047,YouBike2.0_中正運動中心,中正區,40,信義路一段1號前,25.03786,121.51985,YouBike2.0_Zhongzheng Sports Center,Zhongzheng Dist,No. 1， Sec 1， Xinyi Rd.
500106048,YouBike2.0_信義杭州路口,中正區,59,信義路一段21號前,25.0357,121.5241,YouBike2.0_Sec 1， Xinyi Rd & Hangzhou S. Rd Intersection,Zhongzheng Dist,No. 21， Sec 1， Xinyi Rd.
500106049,YouBike2.0_捷運善導寺站(3號出口),中正區,20,林森南路1號南側,25.04428,121.52336,YouBike2.0_MRT Shandao Temple Sta (Exit 3),Zhongzheng Dist,No. 21， Linsen S. Rd. (South)
500106050,YouBike2.0_捷運小南門站(1號出口),中正區,46,愛國西路/延平南路(西北側),25.03648,121.50951,YouBike2.0_MRT Xiaonanmen Sta. (Exit 1),Zhongzheng Dist,Aiguo E. Rd. & Yanping S. Rd Intersection (Northwest)
500106051,YouBike2.0_延平南路133巷口,中正區,36,延平南路162號對側,25.03792,121.50846,YouBike2.0_Ln. 133， Yanping S. Rd Intersection,Zhongzheng Dist,No.162， Yanping S. Rd. (Opposite)
500106052,YouBike2.0_捷運西門站(2號出口),中正區,36,中華路一段59號旁,25.0416,121.50842,YouBike2.0_MRT Ximen Sta (Exit 2),Zhongzheng Dist,No. 59， Sec. 1， Zhonghua Rd.
500106053,YouBike2.0_寶慶博愛路口,中正區,47,博愛路162號,25.04129,121.5112,YouBike2.0_Baoqing Rd & Bo'ai Rd Intersection,Zhongzheng Dist,No. 162， Bo'ai Rd.
500106054,YouBike2.0_法務部,中正區,27,重慶南路一段130號旁,25.03705,121.51249,YouBike2.0_Agency Against Corruption,Zhongzheng Dist,No. 130， Sec. 1， Chongqing S. Rd.
500106055,YouBike2.0_臺北市立大學(博愛校區),中正區,81,愛國西路1號(前),25.03545,121.51327,YouBike2.0_University of Taipei Boai Campus,Zhongzheng Dist,No. 1， Aiguo W. Rd.
500106056,YouBike2.0_國家圖書館,中正區,36,中山南路20號前,25.03763,121.51709,YouBike2.0_National Central Library,Zhongzheng Dist,No. 20， Zhongshan S. Rd.
500106057,YouBike2.0_市民金山路口,中正區,70,金山市民大道口南側,25.0459,121.53068,YouBike2.0_Civic Blvd & Jinshan N. Rd Intersection,Zhongzheng Dist,Jinshan N. Rd & Civic Blvd Intersection. (South)
500106058,YouBike2.0_聯合醫院和平院區,中正區,32,中華路二段33號旁,25.03516,121.50641,YouBike2.0_Taipei City Hospital Heping Branch,Zhongzheng Dist,No. 33， Sec. 2， Zhonghua Rd.
500106059,YouBike2.0_中山堂,中正區,43,武昌街一段與延平南路口,25.04412,121.51025,YouBike2.0_Zhongshan Hall,Zhongzheng Dist,Sec. 1， Wuchang St & Yanping South Rd Intersection.
500106060,YouBike2.0_中華漢口街口,中正區,19,中華路一段與漢口街一段路口,25.04533,121.50944,YouBike2.0_Sec. 1， Zhonghua Rd & Hankou St Intersection,Zhongzheng Dist,Sec. 1， Zhonghua Rd & Sec. 1， Hankou St Intersection
500106061,YouBike2.0_中華路一段21巷口,中正區,22,中華路一段11號(斜前方),25.04677,121.50989,YouBike2.0_Ln. 21， Sec. 1， Zhonghua Rd Intersection,Zhongzheng Dist,No. 11， Sec. 1， Zhonghua Rd. (Front right)
500106062,YouBike2.0_捷運臺大醫院站(4號出口),中正區,60,常德街1號(公園路側),25.04297,121.51643,YouBike2.0_MRT NTU Hospital Sta. (Exit 4),Zhongzheng Dist,No. 1， Changde St. (Gongyuan Rd)
500106063,YouBike2.0_寶藏巖觀音亭,中正區,23,汀州路三段230巷23號,25.01027,121.5331,YouBike2.0_Treasure Hill Guanyin Temple,Zhongzheng Dist,No. 23， Ln. 230， Sec. 3， Tingzhou Rd.
500106064,YouBike2.0_師大水源路口,中正區,28,師大路/水源路口(東南側),25.0203,121.52302,YouBike2.0_Shida Rd. & Shuiyuan Rd. Intersection,Zhongzheng Dist,Shida Rd. & Shuiyuan Rd. Intersection (Southeast)
500106065,YouBike2.0_中山徐州路口,中正區,41,中山南路/徐州路(東南側),25.04178,121.51907,YouBike2.0_Zhongshan Rd. & Xuzhou Rd. Intersection,Zhongzheng Dist,Zhongshan S. Rd. & Xuzhou Rd. (Southeast)
500106066,YouBike2.0_信義連雲街口,中正區,39,信義路二段213號前,25.03377,121.53041,YouBike2.0_Xinyi Rd. & Lianyun St. Intersection,Zhongzheng Dist,No. 213， Sec. 2， Sinyi Rd.
500106067,YouBike2.0_臺北轉運站,中正區,68,市民大道一段/中山北路一段(西北側),25.04842,121.51994,YouBike2.0_Taipei Bus Station,Zhongzheng Dist,Sec. 1， Civic Blvd. & Sec. 1， Jhongshan N. Rd. Intersection (Northwest)
500106068,YouBike2.0_莒光大埔街口,中正區,32,莒光路/大埔街口(東北側),25.03132,121.50519,YouBike2.0_Jyuguang Rd. & Dapu St. Intersection,Zhongzheng Dist,Jyuguang Rd. & Dapu St. Intersection (Northeast)
500106069,YouBike2.0_捷運忠孝新生站(2號出口),中正區,32,忠孝東路二段132號(東側),25.04235,121.53222,YouBike2.0_MRT Zhongxiao Xinsheng Sta.(Exit.2),Zhongzheng Dist,No. 132， Sec. 2， Jhongsiao E. Rd. (East)
500106070,YouBike2.0_光華商場,中正區,39,新生北路一段/市民大道三段口(西側),25.04478,121.53274,YouBike2.0_Guang Hua Computer Market,Zhongzheng Dist,Sec. 1， Sinsheng N. Rd. & Sec. 3， Civic Blvd. Intersection (West)
500106071,YouBike2.0_中山青島路口,中正區,40,中山南路/青島東路口(東北側),25.04503,121.51968,YouBike2.0_Zhongshan & Qingdao Intersection,Zhongzheng Dist,Zhongshan S. Rd & Qingdao E. Rd. Intersection (Northeast)
500106072,YouBike2.0_捷運中正紀念堂站(5號出口),中正區,29,捷運中正紀念堂站(5號出口)西側,25.03526,121.5168,YouBike2.0_MRT C.K.S Memorial Hall Sta.(Exit.5),Zhongzheng Dist,MRT C.K.S Memorial Hall Sta. (Exit.5) (West)
500106073,YouBike2.0_北平東杭州北路口,中正區,20,北平東路/杭州北路口(東北側),25.04553,121.52736,YouBike2.0_Beiping E. Rd. & Hangzhou N. Rd. Intersection,Zhongzheng Dist,Beiping E. Rd. & Hangzhou N. Rd. Intersection (Northeast)
500106074,YouBike2.0_王貫英先生紀念圖書館,中正區,15,汀州路二段265號,25.02266,121.52362,YouBike2.0_Taipei Public Library Wang Guan-Ying Branch,Zhongzheng Dist,No. 265， Sec. 2， Tingzhou Rd.
500106075,YouBike2.0_金山信義路口,中正區,25,金山南路一段148號前側,25.03443,121.52721,YouBike2.0_Jinshan Rd. & Xinyi Rd. Intersection,Zhongzheng Dist,No. 148， Sec. 1， Jinshan S. Rd.
500106077,YouBike2.0_林森徐州路口,中正區,32,林森南路/徐州路口(西南側),25.04094,121.52215,YouBike2.0_Linsen Rd. & Xuzhou Rd. Intersection,Zhongzheng Dist,Linsen S. Rd. & Xuzhou Rd. Intersection (Northwest)
500106078,YouBike2.0_徐州杭州路口,中正區,30,徐州路/杭州南路一段口(西北側),25.04023,121.52565,YouBike2.0_Xuzhou Rd. Hangzhou Rd. Intersection,Zhongzheng Dist,Xuzhou Rd. Sec. 1， Hangzhou S. Rd. Intersection (Northwest)
500106079,YouBike2.0_捷運中正紀念堂站(6號出口),中正區,17,捷運中正紀念堂站(6號出口)北側,25.03615,121.5166,YouBike2.0_MRT C.K.S Memorial Hall Sta.(Exit 6),Zhongzheng Dist,MRT C.K.S Memorial Hall Sta.(Exit.6) (North)
500106080,YouBike2.0_捷運臺北車站(M2出口),中正區,20,市民大道一段168號旁,25.04821,121.51903,YouBike2.0_MRT Taipei Main Sta.(Exit M2),Zhongzheng Dist,No. 168， Sec. 1， Civic Blvd.
500106083,YouBike2.0_臺北市國父史蹟館(逸仙公園),中正區,31,中山北路一段46號北側,25.04779,121.52042,YouBike2.0_Dr. Sun Yat-Sen Memorial House (Sun Yat-sen Park),Zhongzheng Dist,No. 46， Sec. 1， Zhongshan N. Rd. (North)
500106084,YouBike2.0_捷運西門站(5號出口),中正區,30,捷運西門站(5號出口)南側,25.04244,121.50864,YouBike2.0_MRT Ximen Sta. (Exit 5),Zhongzheng Dist,MRT Ximen Sta. (Exit 5) (South)
500106085,YouBike2.0_弘道國中,中正區,33,公園路21號西北側,25.03828,121.51524,YouBike2.0_Hondao Junior High School,Zhongzheng Dist,No. 21， Gongyuan Rd. (Northwest)
500106086,YouBike2.0_臺北市第一女子高級中學,中正區,28,重慶南路一段165號旁,25.0385,121.51288,YouBike2.0_Taipei First Girls High School,Zhongzheng Dist,No. 165， Sec. 1， Chongqing S. Rd.
500106087,YouBike2.0_台北市替代役中心,中正區,15,汀州路三段8號前,25.01808,121.5275,YouBike2.0_Substitute Military Service Center,Zhongzheng Dist,No. 8， Sec. 3， Tingzhou Rd.
500106088,YouBike2.0_紹興徐州路口,中正區,18,紹興南街/徐州路(東南側),25.04051,121.52401,YouBike2.0_Shaoxing St. & Xuzhou Rd. Intersection,Zhongzheng Dist,Shaoxing S. St. & Xuzhou Rd. Intersection (Southeast)
500106089,YouBike2.0_羅斯福寧波東街口,中正區,26,羅斯福路一段/寧波東街(東南側),25.03145,121.51941,YouBike2.0_Roosevelt Rd. & Ningbo E. St. Intersection,Zhongzheng Dist,Sec. 1， Roosevelt Rd. & Ningbo E. St. Intersection (Southeast)
500106090,YouBike2.0_自來水園區,中正區,40,中正區思源街16號對面人行道,25.01328,121.53004,YouBike2.0_Taipei Water Park,Zhongzheng Dist,No. 16， Siyuan St. (Opposite)
500106091,YouBike2.0_仁愛林森路口,中正區,31,仁愛路一段路口/林森南路(東北側),25.03895,121.52233,YouBike2.0_Ren'ai Rd. & Linsen Rd. Intersection,Zhongzheng Dist,Sec. 1， Ren'ai Rd. & Linsen S. Rd. Intersection (Northeast)
500106092,YouBike2.0_捷運西門站(3號出口),中正區,36,中華路一段/寶慶路(東南側),25.04178,121.50869,YouBike2.0_MRT Ximen Sta. (Exit 3),Zhongzheng Dist,Sec. 1， Zhonghua Rd. & Baoqing Rd. Intersection (Southeast)
500106093,YouBike2.0_仁愛金山路口,中正區,9,仁愛路二段31號前,25.0384,121.52801,YouBike2.0_Ren'ai Rd. & Jinshan Rd. Intersection,Zhongzheng Dist,No. 31， Sec. 2， Ren'ai Rd.
500106094,YouBike2.0_杭州南路一段101巷口,中正區,14,金山南路一段72號前,25.03746,121.52799,YouBike2.0_Ln. 101， Sec. 1， Hangzhou S. Rd.,Zhongzheng Dist,No. 72， Sec. 1， Jinshan S. Rd.
500106095,YouBike2.0_仁愛杭州路口,中正區,25,仁愛路一段59號旁,25.03846,121.52497,YouBike2.0_Ren'ai Rd. & Hangzhou Rd. Intersection,Zhongzheng Dist,No. 59， Sec. 1， Ren'ai Rd.
500106096,YouBike2.0_龍興里活動中心,中正區,21,三元街131號旁,25.02815,121.51108,YouBike2.0_Longxing Community Center,Zhongzheng Dist,No. 131， Sanyuan St.
500106097,YouBike2.0_植物園,中正區,29,和平西路二段100號前,25.0299,121.51033,YouBike2.0_Taipei Botanical Garden,Zhongzheng Dist,No. 100， Sec. 2， Heping W. Rd.
500106098,YouBike2.0_郵政博物館,中正區,24,重慶南路二段45號前方(郵政博物館前),25.03158,121.51464,YouBike2.0_Postal Museum,Zhongzheng Dist,No. 45， Sec. 2， Chongqing S. Rd.
500106099,YouBike2.0_林森北平路口,中正區,20,林森北路與北平東路口西北側,25.04659,121.52377,YouBike2.0_Linsen Rd & Beiping Rd. Intersection,Zhongzheng Dist,Linsen N. Rd & Beiping E. Rd. Intersection (Northwest)
500106100,YouBike2.0_北平紹興路口,中正區,39,北平東路30號對側人行道,25.04597,121.52579,YouBike2.0_Beiping Rd. & Shaoxing St. Intersection,Zhongzheng Dist,No. 30， Beiping E. Rd. (Opposite)
500106101,YouBike2.0_天津北平路口,中正區,25,天津街1號對側人行道,25.04692,121.52208,YouBike2.0_Tianjin St. & Beiping Rd. Intersection,Zhongzheng Dist,No. 1， Tianjin St. (Opposite)
500106102,YouBike2.0_捷運忠孝新生站(1號出口),中正區,19,捷運忠孝新生站(1號出口)後方,25.04272,121.53207,YouBike2.0_MRT Zhongxiao Xinsheng Sta.(Exit.1),Zhongzheng Dist,MRT Zhongxiao Xinsheng Sta.(Exit.1)
500106103,YouBike2.0_捷運忠孝新生站(5號出口),中正區,13,新生南路一段56號前方,25.04113,121.53273,YouBike2.0_MRT Zhongxiao Xinsheng Sta.(Exit.5),Zhongzheng Dist,No. 56， Sec. 1， Xinsheng S. Rd.
500106104,YouBike2.0_捷運臺大醫院站(1號出口),中正區,19,公園路/常德街口(西側),25.04074,121.51586,YouBike2.0_MRT NTU Hospital Sta. (Exit. 1),Zhongzheng Dist,Gongyuan Rd. & Changde St. Intersection (West)
500106105,YouBike2.0_臺大醫院兒童醫院,中正區,22,中山南路8號(青島西路側),25.04461,121.5188,YouBike2.0_National Taiwan University Children's Hospital,Zhongzheng Dist,No. 8， Zhongshan S. Rd. (Qingdao W. Rd.)
500106106,YouBike2.0_林森濟南路口(東北側),中正區,26,林森南路/濟南路一段口(東北側),25.0425,121.5227,YouBike2.0_Linsen Rd. & Jinan Rd. Intersection (Northeast),Zhongzheng Dist,Linsen S. Rd. & Sec. 1， Jinan Rd. Intersection (Northeast)
500106107,YouBike2.0_仁愛紹興街口(南側),中正區,17,仁愛路一段/紹興南街口(南側),25.03837,121.52345,YouBike2.0_Ren'ai Rd. & Shaoxing St. Intersection (South),Zhongzheng Dist,Sec. 1， Ren'ai Rd. & Shaoxing S. St. Intersection (South)
500106108,YouBike2.0_中華南海路口,中正區,15,中華路二段343號前,25.02703,121.50686,YouBike2.0_Zhonghua Rd. & Nanhai Rd. Intersection,Zhongzheng Dist,No. 343， Sec. 2， Zhonghua Rd.
500106109,YouBike2.0_立法院台北會館,中正區,15,博愛路217號旁,25.03371,121.51068,YouBike2.0_Taipei Association,Zhongzheng Dist,No. 217， Bo'ai Rd.
500106110,YouBike2.0_捷運善導寺站(3號出口)(忠孝東路側),中正區,31,忠孝東路一段/林森南路口,25.04467,121.52357,YouBike2.0_MRT Shandao Temple Sta. (Exit 3) (Zhongxiao E. Rd.),Zhongzheng Dist,Sec. 1， Zhongxiao E. Rd. & Linsen S. Rd. Intersection
500106111,YouBike2.0_國家音樂廳,中正區,22,信義路一段(國家音樂廳西北側),25.03788,121.51904,YouBike2.0_National Concert Hall,Zhongzheng Dist,Sec. 1， Xinyi Rd. (National Concert Hall Northwest)
500106112,YouBike2.0_忠孝西重慶南路口,中正區,33,忠孝西路一段100號前,25.04724,121.51272,YouBike2.0_Zhongxiao W. Rd. & Chongqing S. Rd. Intersection,Zhongzheng Dist,No. 100， Sec. 1， Zhongxiao W. Rd.
500106113,YouBike2.0_濟南路二段8巷口,中正區,14,濟南路二段6-1號對側,25.04127,121.52697,YouBike2.0_Ln. 8， Sec. 2， Jinan Rd.,Zhongzheng Dist,No. 6-1， Ln. 8， Sec. 2， Jinan Rd. (Opposite)
500106114,YouBike2.0_仁愛金山路口(東南側),中正區,14,仁愛路二段48-4號前,25.03811,121.52855,YouBike2.0_Ren'ai Rd. & Jinshan Rd. Intersection (Southeast),Zhongzheng Dist,No. 48-4， Sec. 2， Ren'ai Rd.
500106115,YouBike2.0_臺灣文學基地,中正區,23,齊東街53巷10號,25.04148,121.5287,YouBike2.0_Taiwan Literature Base,Zhongzheng Dist,No. 10， Ln. 53， Qidong St.
500106116,YouBike2.0_重慶南詔安街口,中正區,19,重慶南路三段/詔安街,25.02507,121.51645,YouBike2.0_Chongqing S. Rd. & Zhao'an St. Intersection,Zhongzheng Dist,Sec. 3， Chongqing S. Rd. & Zhao'an St. Intersection
500106117,YouBike2.0_文光公園,中正區,28,仁愛路二段65巷4號對側,25.03898,121.53058,YouBike2.0_Wenguang Park,Zhongzheng Dist,No. 4， Ln. 65， Sec. 2， Ren'ai Rd. (Opposite)
500106118,YouBike2.0_捷運中正紀念堂站(2號出口),中正區,12,羅斯福路一段10號前,25.03212,121.51861,YouBike2.0_MRT C.K.S Memorial Hall Sta.(Exit 2),Zhongzheng Dist,No. 10， Sec. 1， Roosevelt Rd.
500106119,YouBike2.0_螢圃里小公園,中正區,25,汀州路二段135號對側,25.02484,121.51973,YouBike2.0_Yingpulixiao Park,Zhongzheng Dist,No. 135， Sec. 2， Tingzhou Rd. (Opposite)
500106120,YouBike2.0_螢橋公園,中正區,29,和平西路一段110號旁,25.02682,121.51737,YouBike2.0_Yingqiao Park,Zhongzheng Dist,No. 110， Sec. 1， Heping W. Rd.
